{"ast":null,"code":"var circleGeofenceData = [{\n  createdOnDt: 1552978912000,\n  createdByUserId: 7697,\n  isActiveFl: true,\n  geofenceId: 74232,\n  geofenceName: 'DDDPI004',\n  centerCords: 'POINT(28.4095777 77.04273910000006)',\n  shapeTypeCode: 'CIRCLE',\n  radiusInKms: 0.5,\n  clientId: 1028,\n  latitude: 28.4095777,\n  longitude: 77.04273910000006,\n  isHighAlert: true\n}, {\n  createdOnDt: 1552644744000,\n  createdByUserId: 7697,\n  isActiveFl: true,\n  geofenceId: 74070,\n  geofenceName: 'DDDPI089',\n  centerCords: 'POINT(28.5924241 77.16242409999995)',\n  shapeTypeCode: 'CIRCLE',\n  radiusInKms: 0.5,\n  clientId: 1028,\n  latitude: 28.5924241,\n  longitude: 77.16242409999995,\n  isHighAlert: true\n}, {\n  createdOnDt: 1551686448000,\n  createdByUserId: 7697,\n  isActiveFl: true,\n  geofenceId: 73568,\n  geofenceName: 'DPI67188',\n  centerCords: 'POINT(25.445403 81.82549429999995)',\n  shapeTypeCode: 'CIRCLE',\n  radiusInKms: 0.5,\n  clientId: 1028,\n  latitude: 25.445403,\n  longitude: 81.82549429999995,\n  isHighAlert: true\n}, {\n  createdOnDt: 1551686344000,\n  createdByUserId: 7697,\n  isActiveFl: true,\n  geofenceId: 73567,\n  geofenceName: 'DPI67191',\n  centerCords: 'POINT(26.4293092 80.31162649999999)',\n  shapeTypeCode: 'CIRCLE',\n  radiusInKms: 0.5,\n  clientId: 1028,\n  latitude: 26.4293092,\n  longitude: 80.31162649999999,\n  isHighAlert: true\n}, {\n  createdOnDt: 1551686151000,\n  createdByUserId: 7697,\n  isActiveFl: true,\n  geofenceId: 73566,\n  geofenceName: 'DPI67201',\n  centerCords: 'POINT(28.4621359 77.04637189999994)',\n  shapeTypeCode: 'CIRCLE',\n  radiusInKms: 0.5,\n  clientId: 1028,\n  latitude: 28.4621359,\n  longitude: 77.04637189999994,\n  isHighAlert: true\n}, {\n  createdOnDt: 1551685984000,\n  createdByUserId: 7697,\n  isActiveFl: true,\n  geofenceId: 73564,\n  geofenceName: 'DPI67200',\n  centerCords: 'POINT(28.4619191 77.00187840000001)',\n  shapeTypeCode: 'CIRCLE',\n  radiusInKms: 0.5,\n  clientId: 1028,\n  latitude: 28.4619191,\n  longitude: 77.00187840000001,\n  isHighAlert: true\n}, {\n  createdOnDt: 1551685811000,\n  createdByUserId: 7697,\n  isActiveFl: true,\n  geofenceId: 73563,\n  geofenceName: 'DFT66683',\n  centerCords: 'POINT(28.5349723 77.34540879999997)',\n  shapeTypeCode: 'CIRCLE',\n  radiusInKms: 0.5,\n  clientId: 1028,\n  latitude: 28.5349723,\n  longitude: 77.34540879999997,\n  isHighAlert: true\n}, {\n  createdOnDt: 1551685455000,\n  createdByUserId: 7697,\n  isActiveFl: true,\n  geofenceId: 73562,\n  geofenceName: 'DPI67209',\n  centerCords: 'POINT(28.4345552 77.0578855)',\n  shapeTypeCode: 'CIRCLE',\n  radiusInKms: 0.5,\n  clientId: 1028,\n  latitude: 28.4345552,\n  longitude: 77.0578855,\n  isHighAlert: true\n}, {\n  createdOnDt: 1551685321000,\n  createdByUserId: 7697,\n  isActiveFl: true,\n  geofenceId: 73561,\n  geofenceName: 'DPI67204',\n  centerCords: 'POINT(28.3877868 77.35319729999992)',\n  shapeTypeCode: 'CIRCLE',\n  radiusInKms: 0.5,\n  clientId: 1028,\n  latitude: 28.3877868,\n  longitude: 77.35319729999992,\n  isHighAlert: true\n}, {\n  createdOnDt: 1551172742000,\n  createdByUserId: 7697,\n  isActiveFl: true,\n  geofenceId: 73258,\n  geofenceName: 'DPI67198',\n  centerCords: 'POINT(20.2307966 85.76281960000006)',\n  shapeTypeCode: 'CIRCLE',\n  radiusInKms: 0.2,\n  clientId: 1028,\n  latitude: 20.2307966,\n  longitude: 85.76281960000006,\n  isHighAlert: true\n}, {\n  createdOnDt: 1551166480000,\n  createdByUserId: 7697,\n  isActiveFl: true,\n  geofenceId: 73256,\n  geofenceName: 'DPI67173',\n  centerCords: 'POINT(22.6616667 88.43424140000002)',\n  shapeTypeCode: 'CIRCLE',\n  radiusInKms: 0.5,\n  clientId: 1028,\n  latitude: 22.6616667,\n  longitude: 88.43424140000002,\n  isHighAlert: true\n}, {\n  createdOnDt: 1550734155000,\n  createdByUserId: 7697,\n  isActiveFl: true,\n  geofenceId: 73113,\n  geofenceName: 'NBU10002',\n  centerCords: 'POINT(28.4130412 77.05532749999998)',\n  shapeTypeCode: 'CIRCLE',\n  radiusInKms: 0.3,\n  clientId: 1028,\n  latitude: 28.4130412,\n  longitude: 77.05532749999998,\n  isHighAlert: true\n}, {\n  createdOnDt: 1550733765000,\n  createdByUserId: 7697,\n  isActiveFl: true,\n  geofenceId: 73112,\n  geofenceName: 'DPI67153',\n  centerCords: 'POINT(28.5355161 77.39102649999995)',\n  shapeTypeCode: 'CIRCLE',\n  radiusInKms: 0.2,\n  clientId: 1028,\n  latitude: 28.5355161,\n  longitude: 77.39102649999995,\n  isHighAlert: true\n}, {\n  createdOnDt: 1549528846000,\n  createdByUserId: 7697,\n  isActiveFl: true,\n  geofenceId: 72491,\n  geofenceName: 'DPI67167',\n  centerCords: 'POINT(22.5920041 88.31575350000003)',\n  shapeTypeCode: 'CIRCLE',\n  radiusInKms: 0.5,\n  clientId: 1028,\n  latitude: 22.5920041,\n  longitude: 88.31575350000003,\n  isHighAlert: true\n}, {\n  createdOnDt: 1548858932000,\n  createdByUserId: 7697,\n  isActiveFl: true,\n  geofenceId: 72243,\n  geofenceName: 'DPI67184 - EROS CITY SQUARE, GURUGRAM',\n  centerCords: 'POINT(28.4126107 77.05520100000001)',\n  shapeTypeCode: 'CIRCLE',\n  radiusInKms: 0.22,\n  clientId: 1028,\n  latitude: 28.4126107,\n  longitude: 77.05520100000001,\n  isHighAlert: true\n}, {\n  createdOnDt: 1548858829000,\n  createdByUserId: 7697,\n  isActiveFl: true,\n  geofenceId: 72242,\n  geofenceName: 'DPI67187  - KUNHARI KOTA, RAJASTHAN',\n  centerCords: 'POINT(25.2022458 75.83240849999993)',\n  shapeTypeCode: 'CIRCLE',\n  radiusInKms: 0.6,\n  clientId: 1028,\n  latitude: 25.2022458,\n  longitude: 75.83240849999993,\n  isHighAlert: true\n}, {\n  createdOnDt: 1548858542000,\n  createdByUserId: 7697,\n  isActiveFl: true,\n  geofenceId: 72241,\n  geofenceName: 'DPI67185',\n  centerCords: 'POINT(26.8957763 75.8289145)',\n  shapeTypeCode: 'CIRCLE',\n  radiusInKms: 0.5,\n  clientId: 1028,\n  latitude: 26.8957763,\n  longitude: 75.8289145,\n  isHighAlert: true\n}, {\n  createdOnDt: 1548858426000,\n  createdByUserId: 7697,\n  isActiveFl: true,\n  geofenceId: 72240,\n  geofenceName: 'DPI67180 - SHIV MANDIR CINEMA',\n  centerCords: 'POINT(27.6019037 75.1522612)',\n  shapeTypeCode: 'CIRCLE',\n  radiusInKms: 0.5,\n  clientId: 1028,\n  latitude: 27.6019037,\n  longitude: 75.1522612,\n  isHighAlert: true\n}, {\n  createdOnDt: 1548654450000,\n  createdByUserId: 7697,\n  isActiveFl: true,\n  geofenceId: 72101,\n  geofenceName: 'DPI67181 - MKB Nagar',\n  centerCords: 'POINT(13.1223836 80.25688809999997)',\n  shapeTypeCode: 'CIRCLE',\n  radiusInKms: 0.5,\n  clientId: 1028,\n  latitude: 13.1223836,\n  longitude: 80.25688809999997,\n  isHighAlert: true\n}, {\n  createdOnDt: 1548243053000,\n  createdByUserId: 7697,\n  isActiveFl: true,\n  geofenceId: 71960,\n  geofenceName: 'DPI67160 - SHRINIVAS NAGAR BANGALORE',\n  centerCords: 'POINT(13.0727681 77.65602549999994)',\n  shapeTypeCode: 'CIRCLE',\n  radiusInKms: 0.5,\n  clientId: 1028,\n  latitude: 13.0727681,\n  longitude: 77.65602549999994,\n  isHighAlert: true\n}, {\n  createdOnDt: 1548054553000,\n  createdByUserId: 7697,\n  isActiveFl: true,\n  geofenceId: 71813,\n  geofenceName: 'DPI67182 - PRESTIGE TECHNOLOGY PARK',\n  centerCords: 'POINT(12.9426433 77.69551479999996)',\n  shapeTypeCode: 'CIRCLE',\n  radiusInKms: 0.2,\n  clientId: 1028,\n  latitude: 12.9426433,\n  longitude: 77.69551479999996,\n  isHighAlert: true\n}, {\n  createdOnDt: 1546599441000,\n  createdByUserId: 7697,\n  isActiveFl: true,\n  geofenceId: 71297,\n  geofenceName: 'DPI67158 - Jyothi Niwas College',\n  centerCords: 'POINT(12.9349141 77.61840410000002)',\n  shapeTypeCode: 'CIRCLE',\n  radiusInKms: 0.5,\n  clientId: 1028,\n  latitude: 12.9349141,\n  longitude: 77.61840410000002,\n  isHighAlert: true\n}, {\n  createdOnDt: 1546589434000,\n  createdByUserId: 7697,\n  isActiveFl: true,\n  geofenceId: 71293,\n  geofenceName: 'DPI67156 - Dr Rajkumar Road Mysore',\n  centerCords: 'POINT(12.3251887 76.68891359999998)',\n  shapeTypeCode: 'CIRCLE',\n  radiusInKms: 0.5,\n  clientId: 1028,\n  latitude: 12.3251887,\n  longitude: 76.68891359999998,\n  isHighAlert: true\n}, {\n  createdOnDt: 1546424766000,\n  createdByUserId: 7697,\n  isActiveFl: true,\n  geofenceId: 71203,\n  geofenceName: 'DPI67166 - SWATI SQUARE, NAYANPUR',\n  centerCords: 'POINT(26.1508388 91.78644340000005)',\n  shapeTypeCode: 'CIRCLE',\n  radiusInKms: 0.5,\n  clientId: 1028,\n  latitude: 26.1508388,\n  longitude: 91.78644340000005,\n  isHighAlert: true\n}, {\n  createdOnDt: 1546168245000,\n  createdByUserId: 7697,\n  isActiveFl: true,\n  geofenceId: 71191,\n  geofenceName: 'DP67169P - NALAGANDLA',\n  centerCords: 'POINT(17.4684396 78.3100081)',\n  shapeTypeCode: 'CIRCLE',\n  radiusInKms: 0.5,\n  clientId: 1028,\n  latitude: 17.4684396,\n  longitude: 78.3100081,\n  isHighAlert: true\n}, {\n  createdOnDt: 1546168018000,\n  createdByUserId: 7697,\n  isActiveFl: true,\n  geofenceId: 71190,\n  geofenceName: 'DPI67183 - SPENCER PLAZA,ANNA SALAI',\n  centerCords: 'POINT(13.0614037 80.26114230000007)',\n  shapeTypeCode: 'CIRCLE',\n  radiusInKms: 0.5,\n  clientId: 1028,\n  latitude: 13.0614037,\n  longitude: 80.26114230000007,\n  isHighAlert: true\n}, {\n  createdOnDt: 1546167878000,\n  createdByUserId: 7697,\n  isActiveFl: true,\n  geofenceId: 71189,\n  geofenceName: 'DPI67179 - SHOLINGANALLUR',\n  centerCords: 'POINT(12.8962058 80.2275932)',\n  shapeTypeCode: 'CIRCLE',\n  radiusInKms: 0.5,\n  clientId: 1028,\n  latitude: 12.8962058,\n  longitude: 80.2275932,\n  isHighAlert: true\n}, {\n  createdOnDt: 1546167718000,\n  createdByUserId: 7697,\n  isActiveFl: true,\n  geofenceId: 71188,\n  geofenceName: 'DPI67175 - N.H.-58, KHATAULI',\n  centerCords: 'POINT(29.2763677 77.73064550000004)',\n  shapeTypeCode: 'CIRCLE',\n  radiusInKms: 2.1,\n  clientId: 1028,\n  latitude: 29.2763677,\n  longitude: 77.73064550000004,\n  isHighAlert: true\n}, {\n  createdOnDt: 1546167627000,\n  createdByUserId: 7697,\n  isActiveFl: true,\n  geofenceId: 71187,\n  geofenceName: 'DPI67176 - OXYGEN BUSINESS PARK',\n  centerCords: 'POINT(28.4986183 77.43512420000002)',\n  shapeTypeCode: 'CIRCLE',\n  radiusInKms: 0.5,\n  clientId: 1028,\n  latitude: 28.4986183,\n  longitude: 77.43512420000002,\n  isHighAlert: true\n}, {\n  createdOnDt: 1546167489000,\n  createdByUserId: 7697,\n  isActiveFl: true,\n  geofenceId: 71186,\n  geofenceName: 'DPI67162 - LOKAZ HOTEL SILVER SPRING LAYOUT',\n  centerCords: 'POINT(12.9573478 77.70878440000001)',\n  shapeTypeCode: 'CIRCLE',\n  radiusInKms: 0.5,\n  clientId: 1028,\n  latitude: 12.9573478,\n  longitude: 77.70878440000001,\n  isHighAlert: true\n}, {\n  createdOnDt: 1545742845000,\n  createdByUserId: 7697,\n  isActiveFl: true,\n  geofenceId: 71086,\n  geofenceName: 'DPI67177 - AGGARWAL FUN CITY MALL, SHAHDARA',\n  centerCords: 'POINT(28.6608447 77.29770889999998)',\n  shapeTypeCode: 'CIRCLE',\n  radiusInKms: 0.2,\n  clientId: 1028,\n  latitude: 28.6608447,\n  longitude: 77.29770889999998,\n  isHighAlert: true\n}, {\n  createdOnDt: 1545651347000,\n  createdByUserId: 7697,\n  isActiveFl: true,\n  geofenceId: 71075,\n  geofenceName: 'DPI67157 - PMR RESIDENCY, DODABALAPUR',\n  centerCords: 'POINT(13.1523822 77.5686991)',\n  shapeTypeCode: 'CIRCLE',\n  radiusInKms: 0.5,\n  clientId: 1028,\n  latitude: 13.1523822,\n  longitude: 77.5686991,\n  isHighAlert: true\n}, {\n  createdOnDt: 1545392180000,\n  createdByUserId: 7697,\n  isActiveFl: true,\n  geofenceId: 71044,\n  geofenceName: 'DPI67174 - RELIANCE MALL, JAMNAGAR',\n  centerCords: 'POINT(22.3700937 69.84283449999998)',\n  shapeTypeCode: 'CIRCLE',\n  radiusInKms: 0.5,\n  clientId: 1028,\n  latitude: 22.3700937,\n  longitude: 69.84283449999998,\n  isHighAlert: true\n}, {\n  createdOnDt: 1545304629000,\n  createdByUserId: 7697,\n  isActiveFl: true,\n  geofenceId: 71032,\n  geofenceName: 'DPI67178 - D.B. MALL, GWALIOR',\n  centerCords: 'POINT(26.2183218 78.18300399999998)',\n  shapeTypeCode: 'CIRCLE',\n  radiusInKms: 0.5,\n  clientId: 1028,\n  latitude: 26.2183218,\n  longitude: 78.18300399999998,\n  isHighAlert: true\n}, {\n  createdOnDt: 1545289695000,\n  createdByUserId: 7697,\n  isActiveFl: true,\n  geofenceId: 71020,\n  geofenceName: 'DPI67154 - BELA CHOWK, RUPNAGAR',\n  centerCords: 'POINT(30.96625885131436 76.52284018015054)',\n  shapeTypeCode: 'CIRCLE',\n  radiusInKms: 0.5,\n  clientId: 1028,\n  latitude: 30.96625885131436,\n  longitude: 76.52284018015054,\n  isHighAlert: true\n}, {\n  createdOnDt: 1545046327000,\n  createdByUserId: 7697,\n  isActiveFl: true,\n  geofenceId: 70956,\n  geofenceName: 'DPI67155 - CAPITAL PLAZA, PUNE',\n  centerCords: 'POINT(18.5082755 73.94366850000006)',\n  shapeTypeCode: 'CIRCLE',\n  radiusInKms: 0.5,\n  clientId: 1028,\n  latitude: 18.5082755,\n  longitude: 73.94366850000006,\n  isHighAlert: true\n}, {\n  createdOnDt: 1545046274000,\n  createdByUserId: 7697,\n  isActiveFl: true,\n  geofenceId: 70955,\n  geofenceName: 'DPI67163 - RELIANCE MALL, RAJKOT',\n  centerCords: 'POINT(22.289115 70.77592789999994)',\n  shapeTypeCode: 'CIRCLE',\n  radiusInKms: 0.5,\n  clientId: 1028,\n  latitude: 22.289115,\n  longitude: 70.77592789999994,\n  isHighAlert: true\n}, {\n  createdOnDt: 1545025217000,\n  createdByUserId: 7697,\n  isActiveFl: true,\n  geofenceId: 70942,\n  geofenceName: 'DPI67152 - BALAJI LAYOUT, BANGALORE',\n  centerCords: 'POINT(12.874549 77.53846399999998)',\n  shapeTypeCode: 'CIRCLE',\n  radiusInKms: 0.5,\n  clientId: 1028,\n  latitude: 12.874549,\n  longitude: 77.53846399999998,\n  isHighAlert: true\n}, {\n  createdOnDt: 1544524301000,\n  createdByUserId: 7697,\n  isActiveFl: true,\n  geofenceId: 70850,\n  geofenceName: 'DPI67132 - DWARKA SECTOR-6',\n  centerCords: 'POINT(28.5876547 77.06324219999999)',\n  shapeTypeCode: 'CIRCLE',\n  radiusInKms: 0.5,\n  clientId: 1028,\n  latitude: 28.5876547,\n  longitude: 77.06324219999999,\n  isHighAlert: true\n}, {\n  createdOnDt: 1544524250000,\n  createdByUserId: 7697,\n  isActiveFl: true,\n  geofenceId: 70849,\n  geofenceName: 'DPICO133 - HEAD OFFICE',\n  centerCords: 'POINT(28.5349723 77.34540879999997)',\n  shapeTypeCode: 'CIRCLE',\n  radiusInKms: 0.51,\n  clientId: 1028,\n  latitude: 28.5349723,\n  longitude: 77.34540879999997,\n  isHighAlert: true\n}, {\n  createdOnDt: 1544524154000,\n  createdByUserId: 7697,\n  isActiveFl: true,\n  geofenceId: 70848,\n  geofenceName: 'DPI67117 - Vrindavan Yojna, Lucknow',\n  centerCords: 'POINT(26.795063 80.91602050000006)',\n  shapeTypeCode: 'CIRCLE',\n  radiusInKms: 0.5,\n  clientId: 1028,\n  latitude: 26.795063,\n  longitude: 80.91602050000006,\n  isHighAlert: true\n}, {\n  createdOnDt: 1543986829000,\n  createdByUserId: 7697,\n  isActiveFl: true,\n  geofenceId: 70565,\n  geofenceName: 'DPI67161 - AYYAPPA HEIGHTS, GACHIBOWLI',\n  centerCords: 'POINT(17.4485869 78.35697490000007)',\n  shapeTypeCode: 'CIRCLE',\n  radiusInKms: 0.5,\n  clientId: 1028,\n  latitude: 17.4485869,\n  longitude: 78.35697490000007,\n  isHighAlert: true\n}, {\n  createdOnDt: 1543986706000,\n  createdByUserId: 7697,\n  isActiveFl: true,\n  geofenceId: 70564,\n  geofenceName: 'DPI67141 - MANORMA INTERNATIONAL HOTEL, DEOGHAR',\n  centerCords: 'POINT(24.4909958 86.68201520000002)',\n  shapeTypeCode: 'CIRCLE',\n  radiusInKms: 0.5,\n  clientId: 1028,\n  latitude: 24.4909958,\n  longitude: 86.68201520000002,\n  isHighAlert: true\n}, {\n  createdOnDt: 1543927988000,\n  createdByUserId: 7697,\n  isActiveFl: true,\n  geofenceId: 70551,\n  geofenceName: 'DPI67149 - RC REDDY COMPLEX, UPPAL ROAD, HYDERABAD',\n  centerCords: 'POINT(17.398965 78.560485)',\n  shapeTypeCode: 'CIRCLE',\n  radiusInKms: 0.5,\n  clientId: 1028,\n  latitude: 17.398965,\n  longitude: 78.560485,\n  isHighAlert: true\n}, {\n  createdOnDt: 1543576630000,\n  createdByUserId: 7697,\n  isActiveFl: true,\n  geofenceId: 70498,\n  geofenceName: 'DPI67131 - VIKAS NAGAR LUCKNOW',\n  centerCords: 'POINT(26.898517 80.95536400000003)',\n  shapeTypeCode: 'CIRCLE',\n  radiusInKms: 0.5,\n  clientId: 1028,\n  latitude: 26.898517,\n  longitude: 80.95536400000003,\n  isHighAlert: true\n}, {\n  createdOnDt: 1543576534000,\n  createdByUserId: 7697,\n  isActiveFl: true,\n  geofenceId: 70497,\n  geofenceName: 'DPI67153 - CANDOR, SECTOR_62, NOIDA',\n  centerCords: 'POINT(28.6205819 77.35930140000005)',\n  shapeTypeCode: 'CIRCLE',\n  radiusInKms: 0.3,\n  clientId: 1028,\n  latitude: 28.6205819,\n  longitude: 77.35930140000005,\n  isHighAlert: true\n}, {\n  createdOnDt: 1543576444000,\n  createdByUserId: 7697,\n  isActiveFl: true,\n  geofenceId: 70496,\n  geofenceName: 'DPI67151 - KIRTI NAGAR METRO STATION, DELHI',\n  centerCords: 'POINT(28.655774 77.15069730000005)',\n  shapeTypeCode: 'CIRCLE',\n  radiusInKms: 0.5,\n  clientId: 1028,\n  latitude: 28.655774,\n  longitude: 77.15069730000005,\n  isHighAlert: true\n}, {\n  createdOnDt: 1543576367000,\n  createdByUserId: 7697,\n  isActiveFl: true,\n  geofenceId: 70495,\n  geofenceName: 'DPI67150 - EPICURIA, NEHRU PLACE, NEW DELHI',\n  centerCords: 'POINT(28.550251515811958 77.2507417201996)',\n  shapeTypeCode: 'CIRCLE',\n  radiusInKms: 0.2,\n  clientId: 1028,\n  latitude: 28.550251515811958,\n  longitude: 77.2507417201996,\n  isHighAlert: true\n}, {\n  createdOnDt: 1543576284000,\n  createdByUserId: 7697,\n  isActiveFl: true,\n  geofenceId: 70494,\n  geofenceName: 'DPI67148 - ANAND PRIME, SANGANER, JAIPUR',\n  centerCords: 'POINT(26.8025218 75.80956470000001)',\n  shapeTypeCode: 'CIRCLE',\n  radiusInKms: 0.5,\n  clientId: 1028,\n  latitude: 26.8025218,\n  longitude: 75.80956470000001,\n  isHighAlert: true\n}, {\n  createdOnDt: 1543485938000,\n  createdByUserId: 7697,\n  isActiveFl: true,\n  geofenceId: 70465,\n  geofenceName: 'DPI67147 - TATA SHERWOOD, BASAVANAGAR',\n  centerCords: 'POINT(12.9670863 77.68081280000001)',\n  shapeTypeCode: 'CIRCLE',\n  radiusInKms: 0.5,\n  clientId: 1028,\n  latitude: 12.9670863,\n  longitude: 77.68081280000001,\n  isHighAlert: true\n}, {\n  createdOnDt: 1541675667000,\n  createdByUserId: 7697,\n  isActiveFl: true,\n  geofenceId: 70062,\n  geofenceName: 'DPI67146 - SRI SAI COMPLEX, KUMARSWAMY LAYOUT',\n  centerCords: 'POINT(12.9060782 77.5586743)',\n  shapeTypeCode: 'CIRCLE',\n  radiusInKms: 0.5,\n  clientId: 1028,\n  latitude: 12.9060782,\n  longitude: 77.5586743,\n  isHighAlert: true\n}, {\n  createdOnDt: 1541675524000,\n  createdByUserId: 7697,\n  isActiveFl: true,\n  geofenceId: 70061,\n  geofenceName: 'DPI67138 - LAXMAN SINGHJI ARCADE',\n  centerCords: 'POINT(19.1507024 77.315069)',\n  shapeTypeCode: 'CIRCLE',\n  radiusInKms: 0.5,\n  clientId: 1028,\n  latitude: 19.1507024,\n  longitude: 77.315069,\n  isHighAlert: true\n}, {\n  createdOnDt: 1539781594000,\n  createdByUserId: 7697,\n  isActiveFl: true,\n  geofenceId: 69611,\n  geofenceName: 'DPI67121 - Ocean Park Township, Nipania',\n  centerCords: 'POINT(22.7603099 75.93100170000002)',\n  shapeTypeCode: 'CIRCLE',\n  radiusInKms: 0.5,\n  clientId: 1028,\n  latitude: 22.7603099,\n  longitude: 75.93100170000002,\n  isHighAlert: true\n}, {\n  createdOnDt: 1539771943000,\n  createdByUserId: 7697,\n  isActiveFl: true,\n  geofenceId: 69606,\n  geofenceName: 'DPI67139 - UPOHAR TOWN CENTER',\n  centerCords: 'POINT(22.4750868 88.40054310000005)',\n  shapeTypeCode: 'CIRCLE',\n  radiusInKms: 0.5,\n  clientId: 1028,\n  latitude: 22.4750868,\n  longitude: 88.40054310000005,\n  isHighAlert: true\n}, {\n  createdOnDt: 1539771839000,\n  createdByUserId: 7697,\n  isActiveFl: true,\n  geofenceId: 69605,\n  geofenceName: 'DPI67137 - Canara Mall',\n  centerCords: 'POINT(13.3530015 74.79025049999996)',\n  shapeTypeCode: 'CIRCLE',\n  radiusInKms: 0.5,\n  clientId: 1028,\n  latitude: 13.3530015,\n  longitude: 74.79025049999996,\n  isHighAlert: true\n}, {\n  createdOnDt: 1539172633000,\n  createdByUserId: 7697,\n  isActiveFl: true,\n  geofenceId: 69226,\n  geofenceName: 'DPI67133 - BAGMANE VIRGO',\n  centerCords: 'POINT(12.9816119 77.69709519999992)',\n  shapeTypeCode: 'CIRCLE',\n  radiusInKms: 0.5,\n  clientId: 1028,\n  latitude: 12.9816119,\n  longitude: 77.69709519999992,\n  isHighAlert: true\n}, {\n  createdOnDt: 1539157777000,\n  createdByUserId: 7697,\n  isActiveFl: true,\n  geofenceId: 69197,\n  geofenceName: 'DPI67144 - SOUL SPACE PARADIGAM MARATHALLI',\n  centerCords: 'POINT(12.951232 77.6989476)',\n  shapeTypeCode: 'CIRCLE',\n  radiusInKms: 0.2,\n  clientId: 1028,\n  latitude: 12.951232,\n  longitude: 77.6989476,\n  isHighAlert: true\n}, {\n  createdOnDt: 1539157684000,\n  createdByUserId: 7697,\n  isActiveFl: true,\n  geofenceId: 69196,\n  geofenceName: 'DPI67127 - BAGALUR CROSS ROAD',\n  centerCords: 'POINT(12.7817433 77.84998910000002)',\n  shapeTypeCode: 'CIRCLE',\n  radiusInKms: 0.5,\n  clientId: 1028,\n  latitude: 12.7817433,\n  longitude: 77.84998910000002,\n  isHighAlert: true\n}, {\n  createdOnDt: 1538833834000,\n  createdByUserId: 7697,\n  isActiveFl: true,\n  geofenceId: 69114,\n  geofenceName: 'DPI67134 - Savvy Sawraj',\n  centerCords: 'POINT(23.1113701 72.54824429999996)',\n  shapeTypeCode: 'CIRCLE',\n  radiusInKms: 0.8,\n  clientId: 1028,\n  latitude: 23.1113701,\n  longitude: 72.54824429999996,\n  isHighAlert: true\n}, {\n  createdOnDt: 1538712556000,\n  createdByUserId: 7697,\n  isActiveFl: true,\n  geofenceId: 69085,\n  geofenceName: 'South India SCC',\n  centerCords: 'POINT(12.863363 77.56763790000002)',\n  shapeTypeCode: 'CIRCLE',\n  radiusInKms: 0.5,\n  clientId: 1028,\n  latitude: 12.863363,\n  longitude: 77.56763790000002,\n  isHighAlert: true\n}, {\n  createdOnDt: 1538234007000,\n  createdByUserId: 7697,\n  isActiveFl: true,\n  geofenceId: 69023,\n  geofenceName: 'DPI67140 - AMBAJI GUJARAT',\n  centerCords: 'POINT(24.3294581 72.84815200000003)',\n  shapeTypeCode: 'CIRCLE',\n  radiusInKms: 0.5,\n  clientId: 1028,\n  latitude: 24.3294581,\n  longitude: 72.84815200000003,\n  isHighAlert: true\n}, {\n  createdOnDt: 1538218062000,\n  createdByUserId: 7697,\n  isActiveFl: true,\n  geofenceId: 69021,\n  geofenceName: 'DPI67135 - R. V. SQUARE, JAMMU',\n  centerCords: 'POINT(32.664803 74.89456919999998)',\n  shapeTypeCode: 'CIRCLE',\n  radiusInKms: 1.0,\n  clientId: 1028,\n  latitude: 32.664803,\n  longitude: 74.89456919999998,\n  isHighAlert: true\n}, {\n  createdOnDt: 1538217431000,\n  createdByUserId: 7697,\n  isActiveFl: true,\n  geofenceId: 69018,\n  geofenceName: 'DPI67135',\n  centerCords: 'POINT(32.669025 74.89621399999999)',\n  shapeTypeCode: 'CIRCLE',\n  radiusInKms: 1.0,\n  clientId: 1028,\n  latitude: 32.669025,\n  longitude: 74.89621399999999,\n  isHighAlert: true\n}, {\n  createdOnDt: 1538133846000,\n  createdByUserId: 54780,\n  isActiveFl: true,\n  geofenceId: 69002,\n  geofenceName: 'DPI67122 - L & T MALL, PUNJAGUTTA HYDERABAD',\n  centerCords: 'POINT(17.4290857 78.45047640000007)',\n  shapeTypeCode: 'CIRCLE',\n  radiusInKms: 0.7,\n  clientId: 1028,\n  latitude: 17.4290857,\n  longitude: 78.45047640000007,\n  isHighAlert: true\n}, {\n  createdOnDt: 1538057696000,\n  createdByUserId: 7697,\n  isActiveFl: true,\n  geofenceId: 68988,\n  geofenceName: 'DPI67142 - Park view Building/Whitefield',\n  centerCords: 'POINT(17.4541204 78.36426740000002)',\n  shapeTypeCode: 'CIRCLE',\n  radiusInKms: 0.5,\n  clientId: 1028,\n  latitude: 17.4541204,\n  longitude: 78.36426740000002,\n  isHighAlert: true\n}, {\n  createdOnDt: 1538057628000,\n  createdByUserId: 7697,\n  isActiveFl: true,\n  geofenceId: 68987,\n  geofenceName: 'DPI67123 - MOOSAPET',\n  centerCords: 'POINT(17.4692318 78.41809880000005)',\n  shapeTypeCode: 'CIRCLE',\n  radiusInKms: 0.5,\n  clientId: 1028,\n  latitude: 17.4692318,\n  longitude: 78.41809880000005,\n  isHighAlert: true\n}, {\n  createdOnDt: 1538037380000,\n  createdByUserId: 7697,\n  isActiveFl: true,\n  geofenceId: 68968,\n  geofenceName: 'DPI67143 - MADGAON RAILWAY STATION, GOA',\n  centerCords: 'POINT(15.2676276 73.97105899999997)',\n  shapeTypeCode: 'CIRCLE',\n  radiusInKms: 0.8,\n  clientId: 1028,\n  latitude: 15.2676276,\n  longitude: 73.97105899999997,\n  isHighAlert: true\n}, {\n  createdOnDt: 1537946224000,\n  createdByUserId: 7697,\n  isActiveFl: true,\n  geofenceId: 68934,\n  geofenceName: 'DPI67126 - MUGAPAIR',\n  centerCords: 'POINT(13.086173 80.18807040000002)',\n  shapeTypeCode: 'CIRCLE',\n  radiusInKms: 0.5,\n  clientId: 1028,\n  latitude: 13.086173,\n  longitude: 80.18807040000002,\n  isHighAlert: true\n}, {\n  createdOnDt: 1537519060000,\n  createdByUserId: 7697,\n  isActiveFl: true,\n  geofenceId: 68872,\n  geofenceName: 'DPI67136 - Thiruvananthapuram Corporation',\n  centerCords: 'POINT(8.4870301 76.92570260000002)',\n  shapeTypeCode: 'CIRCLE',\n  radiusInKms: 0.7,\n  clientId: 1028,\n  latitude: 8.4870301,\n  longitude: 76.92570260000002,\n  isHighAlert: true\n}, {\n  createdOnDt: 1537263058000,\n  createdByUserId: 7697,\n  isActiveFl: true,\n  geofenceId: 68786,\n  geofenceName: 'DPI67119 - SRMT Mall',\n  centerCords: 'POINT(16.99825970505785 82.24275112152101)',\n  shapeTypeCode: 'CIRCLE',\n  radiusInKms: 0.1,\n  clientId: 1028,\n  latitude: 16.99825970505785,\n  longitude: 82.24275112152101,\n  isHighAlert: true\n}, {\n  createdOnDt: 1537002447000,\n  createdByUserId: 7697,\n  isActiveFl: true,\n  geofenceId: 68244,\n  geofenceName: 'DPI67145',\n  centerCords: 'POINT(30.9148396 75.8090876)',\n  shapeTypeCode: 'CIRCLE',\n  radiusInKms: 0.5,\n  clientId: 1028,\n  latitude: 30.9148396,\n  longitude: 75.8090876,\n  isHighAlert: true\n}, {\n  createdOnDt: 1536048300000,\n  createdByUserId: 7697,\n  isActiveFl: true,\n  geofenceId: 66523,\n  geofenceName: 'DPI67109 - Ganga Nagar, Meerut, Uttar Pradesh',\n  centerCords: 'POINT(29.00300319999999 77.75569410000003)',\n  shapeTypeCode: 'CIRCLE',\n  radiusInKms: 0.5,\n  clientId: 1028,\n  latitude: 29.00300319999999,\n  longitude: 77.75569410000003,\n  isHighAlert: true\n}, {\n  createdOnDt: 1535194352000,\n  createdByUserId: 7697,\n  isActiveFl: true,\n  geofenceId: 66297,\n  geofenceName: 'DPI67100 - VIT Vellore Institute of technology',\n  centerCords: 'POINT(12.9558546 79.13698810000005)',\n  shapeTypeCode: 'CIRCLE',\n  radiusInKms: 0.5,\n  clientId: 1028,\n  latitude: 12.9558546,\n  longitude: 79.13698810000005,\n  isHighAlert: true\n}, {\n  createdOnDt: 1534930090000,\n  createdByUserId: 7697,\n  isActiveFl: true,\n  geofenceId: 66170,\n  geofenceName: 'DPI67107- SHOOLAGIRI-TAMILNADU',\n  centerCords: 'POINT(12.6634436 78.0124035)',\n  shapeTypeCode: 'CIRCLE',\n  radiusInKms: 0.5,\n  clientId: 1028,\n  latitude: 12.6634436,\n  longitude: 78.0124035,\n  isHighAlert: true\n}, {\n  createdOnDt: 1534504752000,\n  createdByUserId: 7697,\n  isActiveFl: true,\n  geofenceId: 66044,\n  geofenceName: 'DPI67120',\n  centerCords: 'POINT(30.61845679999999 76.8258816)',\n  shapeTypeCode: 'CIRCLE',\n  radiusInKms: 0.5,\n  clientId: 1028,\n  latitude: 30.61845679999999,\n  longitude: 76.8258816,\n  isHighAlert: true\n}, {\n  createdOnDt: 1534496992000,\n  createdByUserId: 7697,\n  isActiveFl: true,\n  geofenceId: 66033,\n  geofenceName: 'DPI67130',\n  centerCords: 'POINT(30.6697538 76.88573569999994)',\n  shapeTypeCode: 'CIRCLE',\n  radiusInKms: 0.8,\n  clientId: 1028,\n  latitude: 30.6697538,\n  longitude: 76.88573569999994,\n  isHighAlert: true\n}, {\n  createdOnDt: 1534496909000,\n  createdByUserId: 7697,\n  isActiveFl: true,\n  geofenceId: 66032,\n  geofenceName: 'DPI67131',\n  centerCords: 'POINT(26.8949704 80.95603589999996)',\n  shapeTypeCode: 'CIRCLE',\n  radiusInKms: 0.5,\n  clientId: 1028,\n  latitude: 26.8949704,\n  longitude: 80.95603589999996,\n  isHighAlert: true\n}, {\n  createdOnDt: 1534416399000,\n  createdByUserId: 7697,\n  isActiveFl: true,\n  geofenceId: 65805,\n  geofenceName: 'DPI67129',\n  centerCords: 'POINT(28.570872 77.39246159999993)',\n  shapeTypeCode: 'CIRCLE',\n  radiusInKms: 0.2,\n  clientId: 1028,\n  latitude: 28.570872,\n  longitude: 77.39246159999993,\n  isHighAlert: true\n}, {\n  createdOnDt: 1534413145000,\n  createdByUserId: 7697,\n  isActiveFl: true,\n  geofenceId: 65802,\n  geofenceName: 'DPI67128',\n  centerCords: 'POINT(20.2971761 85.866535)',\n  shapeTypeCode: 'CIRCLE',\n  radiusInKms: 0.8,\n  clientId: 1028,\n  latitude: 20.2971761,\n  longitude: 85.866535,\n  isHighAlert: true\n}, {\n  createdOnDt: 1534237094000,\n  createdByUserId: 7697,\n  isActiveFl: true,\n  geofenceId: 65755,\n  geofenceName: 'DPI67126',\n  centerCords: 'POINT(13.08767 80.18849)',\n  shapeTypeCode: 'CIRCLE',\n  radiusInKms: 0.5,\n  clientId: 1028,\n  latitude: 13.08767,\n  longitude: 80.18849,\n  isHighAlert: true\n}, {\n  createdOnDt: 1534237002000,\n  createdByUserId: 7697,\n  isActiveFl: true,\n  geofenceId: 65754,\n  geofenceName: 'DPI67127',\n  centerCords: 'POINT(13.1210219 77.61579840000002)',\n  shapeTypeCode: 'CIRCLE',\n  radiusInKms: 1.0,\n  clientId: 1028,\n  latitude: 13.1210219,\n  longitude: 77.61579840000002,\n  isHighAlert: true\n}, {\n  createdOnDt: 1533980048000,\n  createdByUserId: 7697,\n  isActiveFl: true,\n  geofenceId: 65661,\n  geofenceName: 'DPI67118',\n  centerCords: 'POINT(13.0806621 80.19751780000001)',\n  shapeTypeCode: 'CIRCLE',\n  radiusInKms: 0.5,\n  clientId: 1028,\n  latitude: 13.0806621,\n  longitude: 80.19751780000001,\n  isHighAlert: true\n}, {\n  createdOnDt: 1533897749000,\n  createdByUserId: 7697,\n  isActiveFl: true,\n  geofenceId: 65628,\n  geofenceName: 'DPI67125',\n  centerCords: 'POINT(18.5844057 73.78088000000002)',\n  shapeTypeCode: 'CIRCLE',\n  radiusInKms: 1.0,\n  clientId: 1028,\n  latitude: 18.5844057,\n  longitude: 73.78088000000002,\n  isHighAlert: true\n}, {\n  createdOnDt: 1533886862000,\n  createdByUserId: 7697,\n  isActiveFl: true,\n  geofenceId: 65618,\n  geofenceName: 'DPI67124',\n  centerCords: 'POINT(21.2041602 79.07754990000001)',\n  shapeTypeCode: 'CIRCLE',\n  radiusInKms: 0.5,\n  clientId: 1028,\n  latitude: 21.2041602,\n  longitude: 79.07754990000001,\n  isHighAlert: true\n}, {\n  createdOnDt: 1532607069000,\n  createdByUserId: 7697,\n  isActiveFl: true,\n  geofenceId: 65130,\n  geofenceName: 'DPI67115',\n  centerCords: 'POINT(30.3332245 78.01088529999993)',\n  shapeTypeCode: 'CIRCLE',\n  radiusInKms: 0.5,\n  clientId: 1028,\n  latitude: 30.3332245,\n  longitude: 78.01088529999993,\n  isHighAlert: true\n}, {\n  createdOnDt: 1531904777000,\n  createdByUserId: 7697,\n  isActiveFl: true,\n  geofenceId: 64809,\n  geofenceName: 'NBU10001',\n  centerCords: 'POINT(28.6707163 77.11012170000004)',\n  shapeTypeCode: 'CIRCLE',\n  radiusInKms: 0.2,\n  clientId: 1028,\n  latitude: 28.6707163,\n  longitude: 77.11012170000004,\n  isHighAlert: true\n}, {\n  createdOnDt: 1531642776000,\n  createdByUserId: 7697,\n  isActiveFl: true,\n  geofenceId: 64702,\n  geofenceName: 'DPI67113',\n  centerCords: 'POINT(25.618773 85.04828410000005)',\n  shapeTypeCode: 'CIRCLE',\n  radiusInKms: 0.7,\n  clientId: 1028,\n  latitude: 25.618773,\n  longitude: 85.04828410000005,\n  isHighAlert: true\n}, {\n  createdOnDt: 1531642687000,\n  createdByUserId: 7697,\n  isActiveFl: true,\n  geofenceId: 64701,\n  geofenceName: 'DPI67106',\n  centerCords: 'POINT(22.785154 86.17909199999997)',\n  shapeTypeCode: 'CIRCLE',\n  radiusInKms: 0.5,\n  clientId: 1028,\n  latitude: 22.785154,\n  longitude: 86.17909199999997,\n  isHighAlert: true\n}, {\n  createdOnDt: 1531642572000,\n  createdByUserId: 7697,\n  isActiveFl: true,\n  geofenceId: 64700,\n  geofenceName: 'DPI67105',\n  centerCords: 'POINT(22.4834659 88.28812540000001)',\n  shapeTypeCode: 'CIRCLE',\n  radiusInKms: 1.0,\n  clientId: 1028,\n  latitude: 22.4834659,\n  longitude: 88.28812540000001,\n  isHighAlert: true\n}, {\n  createdOnDt: 1531316102000,\n  createdByUserId: 7697,\n  isActiveFl: true,\n  geofenceId: 61148,\n  geofenceName: 'DPI67104',\n  centerCords: 'POINT(12.8793041 77.63674409999999)',\n  shapeTypeCode: 'CIRCLE',\n  radiusInKms: 0.5,\n  clientId: 1028,\n  latitude: 12.8793041,\n  longitude: 77.63674409999999,\n  isHighAlert: true\n}, {\n  createdOnDt: 1531316005000,\n  createdByUserId: 7697,\n  isActiveFl: true,\n  geofenceId: 61147,\n  geofenceName: 'DPI67108',\n  centerCords: 'POINT(12.978502 77.65805499999999)',\n  shapeTypeCode: 'CIRCLE',\n  radiusInKms: 0.3,\n  clientId: 1028,\n  latitude: 12.978502,\n  longitude: 77.65805499999999,\n  isHighAlert: true\n}, {\n  createdOnDt: 1531315913000,\n  createdByUserId: 7697,\n  isActiveFl: true,\n  geofenceId: 61146,\n  geofenceName: 'DPI67114',\n  centerCords: 'POINT(12.9016498 77.70569049999995)',\n  shapeTypeCode: 'CIRCLE',\n  radiusInKms: 0.2,\n  clientId: 1028,\n  latitude: 12.9016498,\n  longitude: 77.70569049999995,\n  isHighAlert: true\n}, {\n  createdOnDt: 1531121310000,\n  createdByUserId: 7697,\n  isActiveFl: true,\n  geofenceId: 60079,\n  geofenceName: 'DPI67119',\n  centerCords: 'POINT(16.9975303 82.24348469999995)',\n  shapeTypeCode: 'CIRCLE',\n  radiusInKms: 0.5,\n  clientId: 1028,\n  latitude: 16.9975303,\n  longitude: 82.24348469999995,\n  isHighAlert: true\n}, {\n  createdOnDt: 1530183890000,\n  createdByUserId: 7697,\n  isActiveFl: true,\n  geofenceId: 58303,\n  geofenceName: 'DPI67111',\n  centerCords: 'POINT(30.694445 76.769006)',\n  shapeTypeCode: 'CIRCLE',\n  radiusInKms: 1.0,\n  clientId: 1028,\n  latitude: 30.694445,\n  longitude: 76.769006,\n  isHighAlert: true\n}, {\n  createdOnDt: 1530182054000,\n  createdByUserId: 7697,\n  isActiveFl: true,\n  geofenceId: 58302,\n  geofenceName: 'DPI67112',\n  centerCords: 'POINT(20.393777 72.893522)',\n  shapeTypeCode: 'CIRCLE',\n  radiusInKms: 1.0,\n  clientId: 1028,\n  latitude: 20.393777,\n  longitude: 72.893522,\n  isHighAlert: true\n}, {\n  createdOnDt: 1530089457000,\n  createdByUserId: 7697,\n  isActiveFl: true,\n  geofenceId: 58263,\n  geofenceName: 'DPI67110',\n  centerCords: 'POINT(12.8480384 80.23986109999998)',\n  shapeTypeCode: 'CIRCLE',\n  radiusInKms: 1.0,\n  clientId: 1028,\n  latitude: 12.8480384,\n  longitude: 80.23986109999998,\n  isHighAlert: true\n}, {\n  createdOnDt: 1527342686000,\n  createdByUserId: 7697,\n  isActiveFl: true,\n  geofenceId: 57262,\n  geofenceName: 'DPI67101',\n  centerCords: 'POINT(28.5742969 77.35411669999996)',\n  shapeTypeCode: 'CIRCLE',\n  radiusInKms: 0.5,\n  clientId: 1028,\n  latitude: 28.5742969,\n  longitude: 77.35411669999996,\n  isHighAlert: true\n}, {\n  createdOnDt: 1527342559000,\n  createdByUserId: 7697,\n  isActiveFl: true,\n  geofenceId: 57261,\n  geofenceName: 'DPI67099',\n  centerCords: 'POINT(28.841203 77.58139400000005)',\n  shapeTypeCode: 'CIRCLE',\n  radiusInKms: 0.7,\n  clientId: 1028,\n  latitude: 28.841203,\n  longitude: 77.58139400000005,\n  isHighAlert: true\n}, {\n  createdOnDt: 1527342300000,\n  createdByUserId: 7697,\n  isActiveFl: true,\n  geofenceId: 57258,\n  geofenceName: 'DPI67096',\n  centerCords: 'POINT(28.5589704 77.08763799999997)',\n  shapeTypeCode: 'CIRCLE',\n  radiusInKms: 0.6,\n  clientId: 1028,\n  latitude: 28.5589704,\n  longitude: 77.08763799999997,\n  isHighAlert: true\n}, {\n  createdOnDt: 1527237933000,\n  createdByUserId: 7697,\n  isActiveFl: true,\n  geofenceId: 57231,\n  geofenceName: 'DPI67098',\n  centerCords: 'POINT(28.6913535 77.48715130000005)',\n  shapeTypeCode: 'CIRCLE',\n  radiusInKms: 0.5,\n  clientId: 1028,\n  latitude: 28.6913535,\n  longitude: 77.48715130000005,\n  isHighAlert: true\n}, {\n  createdOnDt: 1527232164000,\n  createdByUserId: 7697,\n  isActiveFl: true,\n  geofenceId: 57225,\n  geofenceName: 'DDI71092',\n  centerCords: 'POINT(28.6355149 77.36929169999996)',\n  shapeTypeCode: 'CIRCLE',\n  radiusInKms: 0.5,\n  clientId: 1028,\n  latitude: 28.6355149,\n  longitude: 77.36929169999996,\n  isHighAlert: true\n}, {\n  createdOnDt: 1525848243000,\n  createdByUserId: 7697,\n  isActiveFl: true,\n  geofenceId: 56693,\n  geofenceName: 'DPI67102',\n  centerCords: 'POINT(15.1784692 76.62820549999992)',\n  shapeTypeCode: 'CIRCLE',\n  radiusInKms: 1.0,\n  clientId: 1028,\n  latitude: 15.1784692,\n  longitude: 76.62820549999992,\n  isHighAlert: true\n}, {\n  createdOnDt: 1525847796000,\n  createdByUserId: 7697,\n  isActiveFl: true,\n  geofenceId: 56692,\n  geofenceName: 'DPI67095',\n  centerCords: 'POINT(12.907727510915443 77.60122060775758)',\n  shapeTypeCode: 'CIRCLE',\n  radiusInKms: 0.6,\n  clientId: 1028,\n  latitude: 12.907727510915443,\n  longitude: 77.60122060775758,\n  isHighAlert: true\n}, {\n  createdOnDt: 1525257346000,\n  createdByUserId: 7697,\n  isActiveFl: true,\n  geofenceId: 56524,\n  geofenceName: 'DPI67103',\n  centerCords: 'POINT(12.9961005 77.69522889999996)',\n  shapeTypeCode: 'CIRCLE',\n  radiusInKms: 0.2,\n  clientId: 1028,\n  latitude: 12.9961005,\n  longitude: 77.69522889999996,\n  isHighAlert: true\n}, {\n  createdOnDt: 1520319501000,\n  createdByUserId: 7697,\n  isActiveFl: true,\n  geofenceId: 54039,\n  geofenceName: 'DDI71093',\n  centerCords: 'POINT(28.57458 77.354117)',\n  shapeTypeCode: 'CIRCLE',\n  radiusInKms: 0.3,\n  clientId: 1028,\n  latitude: 28.57458,\n  longitude: 77.354117,\n  isHighAlert: true\n}, {\n  createdOnDt: 1520319442000,\n  createdByUserId: 7697,\n  isActiveFl: true,\n  geofenceId: 54038,\n  geofenceName: 'DDI71091',\n  centerCords: 'POINT(28.567752 77.326204)',\n  shapeTypeCode: 'CIRCLE',\n  radiusInKms: 0.3,\n  clientId: 1028,\n  latitude: 28.567752,\n  longitude: 77.326204,\n  isHighAlert: true\n}, {\n  createdOnDt: 1519737271000,\n  createdByUserId: 7697,\n  isActiveFl: true,\n  geofenceId: 53825,\n  geofenceName: 'DPI67091',\n  centerCords: 'POINT(28.928842 77.055883)',\n  shapeTypeCode: 'CIRCLE',\n  radiusInKms: 3.0,\n  clientId: 1028,\n  latitude: 28.928842,\n  longitude: 77.055883,\n  isHighAlert: true\n}, {\n  createdOnDt: 1519734649000,\n  createdByUserId: 7697,\n  isActiveFl: true,\n  geofenceId: 53823,\n  geofenceName: 'DPI67097',\n  centerCords: 'POINT(11.055803 76.993755)',\n  shapeTypeCode: 'CIRCLE',\n  radiusInKms: 0.5,\n  clientId: 1028,\n  latitude: 11.055803,\n  longitude: 76.993755,\n  isHighAlert: true\n}, {\n  createdOnDt: 1519734452000,\n  createdByUserId: 7697,\n  isActiveFl: true,\n  geofenceId: 53822,\n  geofenceName: 'DPI67094',\n  centerCords: 'POINT(12.318148 76.665708)',\n  shapeTypeCode: 'CIRCLE',\n  radiusInKms: 0.5,\n  clientId: 1028,\n  latitude: 12.318148,\n  longitude: 76.665708,\n  isHighAlert: true\n}, {\n  createdOnDt: 1519734275000,\n  createdByUserId: 7697,\n  isActiveFl: true,\n  geofenceId: 53819,\n  geofenceName: 'DPI67093',\n  centerCords: 'POINT(10.782693 79.139323)',\n  shapeTypeCode: 'CIRCLE',\n  radiusInKms: 0.5,\n  clientId: 1028,\n  latitude: 10.782693,\n  longitude: 79.139323,\n  isHighAlert: true\n}, {\n  createdOnDt: 1517990545000,\n  createdByUserId: 7697,\n  isActiveFl: true,\n  geofenceId: 52864,\n  geofenceName: 'C011',\n  centerCords: 'POINT(28.44029 77.562008)',\n  shapeTypeCode: 'CIRCLE',\n  radiusInKms: 0.2,\n  clientId: 1028,\n  latitude: 28.44029,\n  longitude: 77.562008,\n  isHighAlert: true\n}, {\n  createdOnDt: 1517986776000,\n  createdByUserId: 7697,\n  isActiveFl: true,\n  geofenceId: 52861,\n  geofenceName: 'DPI67092',\n  centerCords: 'POINT(19.1727748 72.835675)',\n  shapeTypeCode: 'CIRCLE',\n  radiusInKms: 0.3,\n  clientId: 1028,\n  latitude: 19.1727748,\n  longitude: 72.835675,\n  isHighAlert: true\n}, {\n  createdOnDt: 1517919481000,\n  createdByUserId: 7697,\n  isActiveFl: true,\n  geofenceId: 52845,\n  geofenceName: 'DPI67009',\n  centerCords: 'POINT(18.528845 73.874102)',\n  shapeTypeCode: 'CIRCLE',\n  radiusInKms: 0.5,\n  clientId: 1028,\n  latitude: 18.528845,\n  longitude: 73.874102,\n  isHighAlert: true\n}, {\n  createdOnDt: 1515500231000,\n  createdByUserId: 7697,\n  isActiveFl: true,\n  geofenceId: 50635,\n  geofenceName: 'C013',\n  centerCords: 'POINT(13.053441 77.736481)',\n  shapeTypeCode: 'CIRCLE',\n  radiusInKms: 0.5,\n  clientId: 1028,\n  latitude: 13.053441,\n  longitude: 77.736481,\n  isHighAlert: true\n}, {\n  createdOnDt: 1514549760000,\n  createdByUserId: 7697,\n  isActiveFl: true,\n  geofenceId: 49900,\n  geofenceName: 'DDI71090',\n  centerCords: 'POINT(13.199768 77.709136)',\n  shapeTypeCode: 'CIRCLE',\n  radiusInKms: 2.0,\n  clientId: 1028,\n  latitude: 13.199768,\n  longitude: 77.709136,\n  isHighAlert: true\n}, {\n  createdOnDt: 1503924584000,\n  createdByUserId: 7697,\n  isActiveFl: true,\n  geofenceId: 45383,\n  geofenceName: 'West India',\n  centerCords: 'POINT(22.78003 72.651266)',\n  shapeTypeCode: 'CIRCLE',\n  radiusInKms: 2.0,\n  clientId: 1028,\n  latitude: 22.78003,\n  longitude: 72.651266,\n  isHighAlert: true\n}, {\n  createdOnDt: 1503924289000,\n  createdByUserId: 7697,\n  isActiveFl: true,\n  geofenceId: 45382,\n  geofenceName: 'East India',\n  centerCords: 'POINT(22.59125 88.221961)',\n  shapeTypeCode: 'CIRCLE',\n  radiusInKms: 1.0,\n  clientId: 1028,\n  latitude: 22.59125,\n  longitude: 88.221961,\n  isHighAlert: true\n}, {\n  createdOnDt: 1503923978000,\n  createdByUserId: 7697,\n  isActiveFl: true,\n  geofenceId: 45381,\n  geofenceName: 'Noida',\n  centerCords: 'POINT(28.545386 77.408431)',\n  shapeTypeCode: 'CIRCLE',\n  radiusInKms: 2.0,\n  clientId: 1028,\n  latitude: 28.545386,\n  longitude: 77.408431,\n  isHighAlert: true\n}, {\n  createdOnDt: 1502861704000,\n  createdByUserId: 7697,\n  isActiveFl: true,\n  geofenceId: 44959,\n  geofenceName: 'Dahisar',\n  centerCords: 'POINT(19.257316 72.8694793)',\n  shapeTypeCode: 'CIRCLE',\n  radiusInKms: 0.2,\n  clientId: 1028,\n  latitude: 19.257316,\n  longitude: 72.8694793,\n  isHighAlert: true\n}, {\n  createdOnDt: 1501170378000,\n  createdByUserId: 12,\n  isActiveFl: true,\n  geofenceId: 43657,\n  geofenceName: 'DPI67025',\n  centerCords: 'POINT(21.22476 72.80739)',\n  shapeTypeCode: 'CIRCLE',\n  radiusInKms: 0.2,\n  clientId: 1028,\n  latitude: 21.22476,\n  longitude: 72.80739,\n  isHighAlert: true\n}, {\n  createdOnDt: 1501170378000,\n  createdByUserId: 12,\n  isActiveFl: true,\n  geofenceId: 43656,\n  geofenceName: 'DDI71063',\n  centerCords: 'POINT(22.29778 73.16523)',\n  shapeTypeCode: 'CIRCLE',\n  radiusInKms: 0.2,\n  clientId: 1028,\n  latitude: 22.29778,\n  longitude: 73.16523,\n  isHighAlert: true\n}, {\n  createdOnDt: 1501170378000,\n  createdByUserId: 12,\n  isActiveFl: true,\n  geofenceId: 43655,\n  geofenceName: 'DDI71070',\n  centerCords: 'POINT(21.15805 72.76973)',\n  shapeTypeCode: 'CIRCLE',\n  radiusInKms: 0.2,\n  clientId: 1028,\n  latitude: 21.15805,\n  longitude: 72.76973,\n  isHighAlert: true\n}, {\n  createdOnDt: 1501170378000,\n  createdByUserId: 12,\n  isActiveFl: true,\n  geofenceId: 43654,\n  geofenceName: 'DDI71027',\n  centerCords: 'POINT(19.068 72.881)',\n  shapeTypeCode: 'CIRCLE',\n  radiusInKms: 0.2,\n  clientId: 1028,\n  latitude: 19.068,\n  longitude: 72.881,\n  isHighAlert: true\n}, {\n  createdOnDt: 1501170378000,\n  createdByUserId: 12,\n  isActiveFl: true,\n  geofenceId: 43653,\n  geofenceName: 'DPI65944',\n  centerCords: 'POINT(22.315976684833323 73.16151022911073)',\n  shapeTypeCode: 'CIRCLE',\n  radiusInKms: 2.0,\n  clientId: 1028,\n  latitude: 22.315976684833323,\n  longitude: 73.16151022911073,\n  isHighAlert: true\n}, {\n  createdOnDt: 1501170378000,\n  createdByUserId: 12,\n  isActiveFl: true,\n  geofenceId: 43652,\n  geofenceName: 'DDI71043',\n  centerCords: 'POINT(19.12027 72.9092)',\n  shapeTypeCode: 'CIRCLE',\n  radiusInKms: 0.2,\n  clientId: 1028,\n  latitude: 19.12027,\n  longitude: 72.9092,\n  isHighAlert: true\n}, {\n  createdOnDt: 1501170378000,\n  createdByUserId: 12,\n  isActiveFl: true,\n  geofenceId: 43651,\n  geofenceName: 'DDI71039',\n  centerCords: 'POINT(13.038 77.643)',\n  shapeTypeCode: 'CIRCLE',\n  radiusInKms: 0.2,\n  clientId: 1028,\n  latitude: 13.038,\n  longitude: 77.643,\n  isHighAlert: true\n}, {\n  createdOnDt: 1501170378000,\n  createdByUserId: 12,\n  isActiveFl: true,\n  geofenceId: 43650,\n  geofenceName: 'DPI66727',\n  centerCords: 'POINT(22.27092 73.19442)',\n  shapeTypeCode: 'CIRCLE',\n  radiusInKms: 0.2,\n  clientId: 1028,\n  latitude: 22.27092,\n  longitude: 73.19442,\n  isHighAlert: true\n}, {\n  createdOnDt: 1501170378000,\n  createdByUserId: 12,\n  isActiveFl: true,\n  geofenceId: 43649,\n  geofenceName: 'DDIN-0001',\n  centerCords: 'POINT(28.56633 77.24858)',\n  shapeTypeCode: 'CIRCLE',\n  radiusInKms: 0.2,\n  clientId: 1028,\n  latitude: 28.56633,\n  longitude: 77.24858,\n  isHighAlert: true\n}, {\n  createdOnDt: 1501170378000,\n  createdByUserId: 12,\n  isActiveFl: true,\n  geofenceId: 43648,\n  geofenceName: 'DPI66689',\n  centerCords: 'POINT(22.462757 72.158282)',\n  shapeTypeCode: 'CIRCLE',\n  radiusInKms: 0.3,\n  clientId: 1028,\n  latitude: 22.462757,\n  longitude: 72.158282,\n  isHighAlert: true\n}, {\n  createdOnDt: 1501170378000,\n  createdByUserId: 12,\n  isActiveFl: true,\n  geofenceId: 43647,\n  geofenceName: 'DPI65863',\n  centerCords: 'POINT(23.02735 72.50799)',\n  shapeTypeCode: 'CIRCLE',\n  radiusInKms: 0.2,\n  clientId: 1028,\n  latitude: 23.02735,\n  longitude: 72.50799,\n  isHighAlert: true\n}, {\n  createdOnDt: 1501170378000,\n  createdByUserId: 12,\n  isActiveFl: true,\n  geofenceId: 43646,\n  geofenceName: 'DDI71040',\n  centerCords: 'POINT(12.91 77.586)',\n  shapeTypeCode: 'CIRCLE',\n  radiusInKms: 0.2,\n  clientId: 1028,\n  latitude: 12.91,\n  longitude: 77.586,\n  isHighAlert: true\n}, {\n  createdOnDt: 1501170378000,\n  createdByUserId: 12,\n  isActiveFl: true,\n  geofenceId: 43645,\n  geofenceName: 'DPI66099',\n  centerCords: 'POINT(22.32357 73.18594)',\n  shapeTypeCode: 'CIRCLE',\n  radiusInKms: 0.2,\n  clientId: 1028,\n  latitude: 22.32357,\n  longitude: 73.18594,\n  isHighAlert: true\n}, {\n  createdOnDt: 1501170378000,\n  createdByUserId: 12,\n  isActiveFl: true,\n  geofenceId: 43644,\n  geofenceName: 'DPI66424',\n  centerCords: 'POINT(23.02695 72.47716)',\n  shapeTypeCode: 'CIRCLE',\n  radiusInKms: 0.2,\n  clientId: 1028,\n  latitude: 23.02695,\n  longitude: 72.47716,\n  isHighAlert: true\n}, {\n  createdOnDt: 1501170378000,\n  createdByUserId: 12,\n  isActiveFl: true,\n  geofenceId: 43643,\n  geofenceName: 'DDI71061',\n  centerCords: 'POINT(12.908 77.648)',\n  shapeTypeCode: 'CIRCLE',\n  radiusInKms: 0.2,\n  clientId: 1028,\n  latitude: 12.908,\n  longitude: 77.648,\n  isHighAlert: true\n}, {\n  createdOnDt: 1501170378000,\n  createdByUserId: 12,\n  isActiveFl: true,\n  geofenceId: 43642,\n  geofenceName: 'DDI71066',\n  centerCords: 'POINT(23.0398 72.53112)',\n  shapeTypeCode: 'CIRCLE',\n  radiusInKms: 0.2,\n  clientId: 1028,\n  latitude: 23.0398,\n  longitude: 72.53112,\n  isHighAlert: true\n}, {\n  createdOnDt: 1501170378000,\n  createdByUserId: 12,\n  isActiveFl: true,\n  geofenceId: 43641,\n  geofenceName: 'DDI71079',\n  centerCords: 'POINT(17.484238 78.38935)',\n  shapeTypeCode: 'CIRCLE',\n  radiusInKms: 0.5,\n  clientId: 1028,\n  latitude: 17.484238,\n  longitude: 78.38935,\n  isHighAlert: true\n}, {\n  createdOnDt: 1501170378000,\n  createdByUserId: 12,\n  isActiveFl: true,\n  geofenceId: 43640,\n  geofenceName: 'DPI66242',\n  centerCords: 'POINT(21.218493 72.870185)',\n  shapeTypeCode: 'CIRCLE',\n  radiusInKms: 0.5,\n  clientId: 1028,\n  latitude: 21.218493,\n  longitude: 72.870185,\n  isHighAlert: true\n}, {\n  createdOnDt: 1501170378000,\n  createdByUserId: 12,\n  isActiveFl: true,\n  geofenceId: 43639,\n  geofenceName: 'DPI65958',\n  centerCords: 'POINT(22.3404517 73.17376820000004)',\n  shapeTypeCode: 'CIRCLE',\n  radiusInKms: 0.7,\n  clientId: 1028,\n  latitude: 22.3404517,\n  longitude: 73.17376820000004,\n  isHighAlert: true\n}, {\n  createdOnDt: 1501170378000,\n  createdByUserId: 12,\n  isActiveFl: true,\n  geofenceId: 43638,\n  geofenceName: 'DDI71059',\n  centerCords: 'POINT(12.991 80.216)',\n  shapeTypeCode: 'CIRCLE',\n  radiusInKms: 0.2,\n  clientId: 1028,\n  latitude: 12.991,\n  longitude: 80.216,\n  isHighAlert: true\n}, {\n  createdOnDt: 1501170378000,\n  createdByUserId: 12,\n  isActiveFl: true,\n  geofenceId: 43637,\n  geofenceName: 'DDI71051',\n  centerCords: 'POINT(12.997 77.697)',\n  shapeTypeCode: 'CIRCLE',\n  radiusInKms: 0.2,\n  clientId: 1028,\n  latitude: 12.997,\n  longitude: 77.697,\n  isHighAlert: true\n}, {\n  createdOnDt: 1501170378000,\n  createdByUserId: 12,\n  isActiveFl: true,\n  geofenceId: 43636,\n  geofenceName: 'DDI71033',\n  centerCords: 'POINT(19.09959 72.91634)',\n  shapeTypeCode: 'CIRCLE',\n  radiusInKms: 0.2,\n  clientId: 1028,\n  latitude: 19.09959,\n  longitude: 72.91634,\n  isHighAlert: true\n}, {\n  createdOnDt: 1501170378000,\n  createdByUserId: 12,\n  isActiveFl: true,\n  geofenceId: 43635,\n  geofenceName: 'DPI66413',\n  centerCords: 'POINT(22.97873 72.60863)',\n  shapeTypeCode: 'CIRCLE',\n  radiusInKms: 0.2,\n  clientId: 1028,\n  latitude: 22.97873,\n  longitude: 72.60863,\n  isHighAlert: true\n}, {\n  createdOnDt: 1501170378000,\n  createdByUserId: 12,\n  isActiveFl: true,\n  geofenceId: 43634,\n  geofenceName: 'DPI66379',\n  centerCords: 'POINT(21.19125 72.78768)',\n  shapeTypeCode: 'CIRCLE',\n  radiusInKms: 0.2,\n  clientId: 1028,\n  latitude: 21.19125,\n  longitude: 72.78768,\n  isHighAlert: true\n}, {\n  createdOnDt: 1501170378000,\n  createdByUserId: 12,\n  isActiveFl: true,\n  geofenceId: 43633,\n  geofenceName: 'DPI66338',\n  centerCords: 'POINT(22.0238323 73.11742950000007)',\n  shapeTypeCode: 'CIRCLE',\n  radiusInKms: 2.0,\n  clientId: 1028,\n  latitude: 22.0238323,\n  longitude: 73.11742950000007,\n  isHighAlert: true\n}, {\n  createdOnDt: 1501170378000,\n  createdByUserId: 12,\n  isActiveFl: true,\n  geofenceId: 43632,\n  geofenceName: 'DPI66152',\n  centerCords: 'POINT(22.28281 73.16612)',\n  shapeTypeCode: 'CIRCLE',\n  radiusInKms: 0.2,\n  clientId: 1028,\n  latitude: 22.28281,\n  longitude: 73.16612,\n  isHighAlert: true\n}, {\n  createdOnDt: 1501170378000,\n  createdByUserId: 12,\n  isActiveFl: true,\n  geofenceId: 43631,\n  geofenceName: 'DPI67033',\n  centerCords: 'POINT(21.23092 72.90326)',\n  shapeTypeCode: 'CIRCLE',\n  radiusInKms: 0.2,\n  clientId: 1028,\n  latitude: 21.23092,\n  longitude: 72.90326,\n  isHighAlert: true\n}, {\n  createdOnDt: 1501170378000,\n  createdByUserId: 12,\n  isActiveFl: true,\n  geofenceId: 43630,\n  geofenceName: 'DPI67019',\n  centerCords: 'POINT(21.186154 72.710327)',\n  shapeTypeCode: 'CIRCLE',\n  radiusInKms: 0.4,\n  clientId: 1028,\n  latitude: 21.186154,\n  longitude: 72.710327,\n  isHighAlert: true\n}, {\n  createdOnDt: 1501170378000,\n  createdByUserId: 12,\n  isActiveFl: true,\n  geofenceId: 43629,\n  geofenceName: 'DDI71068',\n  centerCords: 'POINT(12.966029 77.717937)',\n  shapeTypeCode: 'CIRCLE',\n  radiusInKms: 0.2,\n  clientId: 1028,\n  latitude: 12.966029,\n  longitude: 77.717937,\n  isHighAlert: true\n}, {\n  createdOnDt: 1501170378000,\n  createdByUserId: 12,\n  isActiveFl: true,\n  geofenceId: 43628,\n  geofenceName: 'DDI71077',\n  centerCords: 'POINT(23.01229 72.51082)',\n  shapeTypeCode: 'CIRCLE',\n  radiusInKms: 0.2,\n  clientId: 1028,\n  latitude: 23.01229,\n  longitude: 72.51082,\n  isHighAlert: true\n}, {\n  createdOnDt: 1501170378000,\n  createdByUserId: 12,\n  isActiveFl: true,\n  geofenceId: 43627,\n  geofenceName: 'DPI65885',\n  centerCords: 'POINT(23.0059 72.55634)',\n  shapeTypeCode: 'CIRCLE',\n  radiusInKms: 0.2,\n  clientId: 1028,\n  latitude: 23.0059,\n  longitude: 72.55634,\n  isHighAlert: true\n}, {\n  createdOnDt: 1501170378000,\n  createdByUserId: 12,\n  isActiveFl: true,\n  geofenceId: 43626,\n  geofenceName: 'DPI66420',\n  centerCords: 'POINT(21.17434 72.80015)',\n  shapeTypeCode: 'CIRCLE',\n  radiusInKms: 0.2,\n  clientId: 1028,\n  latitude: 21.17434,\n  longitude: 72.80015,\n  isHighAlert: true\n}, {\n  createdOnDt: 1501170378000,\n  createdByUserId: 12,\n  isActiveFl: true,\n  geofenceId: 43625,\n  geofenceName: 'DPI66320',\n  centerCords: 'POINT(21.197297 72.86006)',\n  shapeTypeCode: 'CIRCLE',\n  radiusInKms: 0.3,\n  clientId: 1028,\n  latitude: 21.197297,\n  longitude: 72.86006,\n  isHighAlert: true\n}, {\n  createdOnDt: 1501170378000,\n  createdByUserId: 12,\n  isActiveFl: true,\n  geofenceId: 43624,\n  geofenceName: 'DPI66131',\n  centerCords: 'POINT(23.01163 72.51164)',\n  shapeTypeCode: 'CIRCLE',\n  radiusInKms: 0.2,\n  clientId: 1028,\n  latitude: 23.01163,\n  longitude: 72.51164,\n  isHighAlert: true\n}, {\n  createdOnDt: 1501170378000,\n  createdByUserId: 12,\n  isActiveFl: true,\n  geofenceId: 43623,\n  geofenceName: 'DPI66471',\n  centerCords: 'POINT(23.02837 72.56107)',\n  shapeTypeCode: 'CIRCLE',\n  radiusInKms: 0.2,\n  clientId: 1028,\n  latitude: 23.02837,\n  longitude: 72.56107,\n  isHighAlert: true\n}, {\n  createdOnDt: 1501170378000,\n  createdByUserId: 12,\n  isActiveFl: true,\n  geofenceId: 43622,\n  geofenceName: 'DPI66030',\n  centerCords: 'POINT(22.55247 72.9437)',\n  shapeTypeCode: 'CIRCLE',\n  radiusInKms: 0.2,\n  clientId: 1028,\n  latitude: 22.55247,\n  longitude: 72.9437,\n  isHighAlert: true\n}, {\n  createdOnDt: 1501170378000,\n  createdByUserId: 12,\n  isActiveFl: true,\n  geofenceId: 43621,\n  geofenceName: 'DPI66148',\n  centerCords: 'POINT(21.12968 72.652976)',\n  shapeTypeCode: 'CIRCLE',\n  radiusInKms: 2.5,\n  clientId: 1028,\n  latitude: 21.12968,\n  longitude: 72.652976,\n  isHighAlert: true\n}, {\n  createdOnDt: 1501170378000,\n  createdByUserId: 12,\n  isActiveFl: true,\n  geofenceId: 43620,\n  geofenceName: 'DPI67085',\n  centerCords: 'POINT(24.18799250197479 72.4228620529175)',\n  shapeTypeCode: 'CIRCLE',\n  radiusInKms: 2.0,\n  clientId: 1028,\n  latitude: 24.18799250197479,\n  longitude: 72.4228620529175,\n  isHighAlert: true\n}, {\n  createdOnDt: 1501170378000,\n  createdByUserId: 12,\n  isActiveFl: true,\n  geofenceId: 43619,\n  geofenceName: 'DDI71047',\n  centerCords: 'POINT(18.55145 73.93479)',\n  shapeTypeCode: 'CIRCLE',\n  radiusInKms: 0.2,\n  clientId: 1028,\n  latitude: 18.55145,\n  longitude: 73.93479,\n  isHighAlert: true\n}, {\n  createdOnDt: 1501170378000,\n  createdByUserId: 12,\n  isActiveFl: true,\n  geofenceId: 43618,\n  geofenceName: 'DDI71024',\n  centerCords: 'POINT(19.076 72.837)',\n  shapeTypeCode: 'CIRCLE',\n  radiusInKms: 0.2,\n  clientId: 1028,\n  latitude: 19.076,\n  longitude: 72.837,\n  isHighAlert: true\n}, {\n  createdOnDt: 1501170378000,\n  createdByUserId: 12,\n  isActiveFl: true,\n  geofenceId: 43617,\n  geofenceName: 'DPI66274',\n  centerCords: 'POINT(23.21618 72.6494)',\n  shapeTypeCode: 'CIRCLE',\n  radiusInKms: 0.2,\n  clientId: 1028,\n  latitude: 23.21618,\n  longitude: 72.6494,\n  isHighAlert: true\n}, {\n  createdOnDt: 1501170378000,\n  createdByUserId: 12,\n  isActiveFl: true,\n  geofenceId: 43616,\n  geofenceName: 'DDI71049',\n  centerCords: 'POINT(15.498 73.824)',\n  shapeTypeCode: 'CIRCLE',\n  radiusInKms: 0.2,\n  clientId: 1028,\n  latitude: 15.498,\n  longitude: 73.824,\n  isHighAlert: true\n}, {\n  createdOnDt: 1501170378000,\n  createdByUserId: 12,\n  isActiveFl: true,\n  geofenceId: 43615,\n  geofenceName: 'DPI66721',\n  centerCords: 'POINT(23.07549 72.65079)',\n  shapeTypeCode: 'CIRCLE',\n  radiusInKms: 0.2,\n  clientId: 1028,\n  latitude: 23.07549,\n  longitude: 72.65079,\n  isHighAlert: true\n}, {\n  createdOnDt: 1501170378000,\n  createdByUserId: 12,\n  isActiveFl: true,\n  geofenceId: 43614,\n  geofenceName: 'DDI71058',\n  centerCords: 'POINT(19.13868 72.8314)',\n  shapeTypeCode: 'CIRCLE',\n  radiusInKms: 0.2,\n  clientId: 1028,\n  latitude: 19.13868,\n  longitude: 72.8314,\n  isHighAlert: true\n}, {\n  createdOnDt: 1501170378000,\n  createdByUserId: 12,\n  isActiveFl: true,\n  geofenceId: 43613,\n  geofenceName: 'DDI71080',\n  centerCords: 'POINT(15.525 73.839)',\n  shapeTypeCode: 'CIRCLE',\n  radiusInKms: 0.2,\n  clientId: 1028,\n  latitude: 15.525,\n  longitude: 73.839,\n  isHighAlert: true\n}, {\n  createdOnDt: 1501170378000,\n  createdByUserId: 12,\n  isActiveFl: true,\n  geofenceId: 43612,\n  geofenceName: 'DDI71042',\n  centerCords: 'POINT(19.08649 72.88971)',\n  shapeTypeCode: 'CIRCLE',\n  radiusInKms: 0.2,\n  clientId: 1028,\n  latitude: 19.08649,\n  longitude: 72.88971,\n  isHighAlert: true\n}, {\n  createdOnDt: 1501170378000,\n  createdByUserId: 12,\n  isActiveFl: true,\n  geofenceId: 43611,\n  geofenceName: 'DPI66349',\n  centerCords: 'POINT(23.07466 72.525732)',\n  shapeTypeCode: 'CIRCLE',\n  radiusInKms: 0.3,\n  clientId: 1028,\n  latitude: 23.07466,\n  longitude: 72.525732,\n  isHighAlert: true\n}, {\n  createdOnDt: 1501170378000,\n  createdByUserId: 12,\n  isActiveFl: true,\n  geofenceId: 43610,\n  geofenceName: 'DPI66616',\n  centerCords: 'POINT(21.23211 72.83551)',\n  shapeTypeCode: 'CIRCLE',\n  radiusInKms: 0.2,\n  clientId: 1028,\n  latitude: 21.23211,\n  longitude: 72.83551,\n  isHighAlert: true\n}, {\n  createdOnDt: 1501170378000,\n  createdByUserId: 12,\n  isActiveFl: true,\n  geofenceId: 43609,\n  geofenceName: 'DPI66259',\n  centerCords: 'POINT(23.02796 72.54264)',\n  shapeTypeCode: 'CIRCLE',\n  radiusInKms: 0.2,\n  clientId: 1028,\n  latitude: 23.02796,\n  longitude: 72.54264,\n  isHighAlert: true\n}, {\n  createdOnDt: 1501170378000,\n  createdByUserId: 12,\n  isActiveFl: true,\n  geofenceId: 43608,\n  geofenceName: 'DPI66542',\n  centerCords: 'POINT(22.31835 73.18789)',\n  shapeTypeCode: 'CIRCLE',\n  radiusInKms: 0.2,\n  clientId: 1028,\n  latitude: 22.31835,\n  longitude: 73.18789,\n  isHighAlert: true\n}, {\n  createdOnDt: 1501170378000,\n  createdByUserId: 12,\n  isActiveFl: true,\n  geofenceId: 43607,\n  geofenceName: 'DDI71054',\n  centerCords: 'POINT(17.443 78.382)',\n  shapeTypeCode: 'CIRCLE',\n  radiusInKms: 0.2,\n  clientId: 1028,\n  latitude: 17.443,\n  longitude: 78.382,\n  isHighAlert: true\n}, {\n  createdOnDt: 1501170378000,\n  createdByUserId: 12,\n  isActiveFl: true,\n  geofenceId: 43606,\n  geofenceName: 'DPI66930',\n  centerCords: 'POINT(22.54745 72.92607)',\n  shapeTypeCode: 'CIRCLE',\n  radiusInKms: 0.2,\n  clientId: 1028,\n  latitude: 22.54745,\n  longitude: 72.92607,\n  isHighAlert: true\n}, {\n  createdOnDt: 1501170378000,\n  createdByUserId: 12,\n  isActiveFl: true,\n  geofenceId: 43605,\n  geofenceName: 'DPI66973',\n  centerCords: 'POINT(23.616432 72.351713)',\n  shapeTypeCode: 'CIRCLE',\n  radiusInKms: 2.0,\n  clientId: 1028,\n  latitude: 23.616432,\n  longitude: 72.351713,\n  isHighAlert: true\n}, {\n  createdOnDt: 1501170378000,\n  createdByUserId: 12,\n  isActiveFl: true,\n  geofenceId: 43604,\n  geofenceName: 'DPI66969',\n  centerCords: 'POINT(23.05116 72.64412)',\n  shapeTypeCode: 'CIRCLE',\n  radiusInKms: 0.2,\n  clientId: 1028,\n  latitude: 23.05116,\n  longitude: 72.64412,\n  isHighAlert: true\n}, {\n  createdOnDt: 1501170378000,\n  createdByUserId: 12,\n  isActiveFl: true,\n  geofenceId: 43603,\n  geofenceName: 'DDI71078',\n  centerCords: 'POINT(13.045104 77.620917)',\n  shapeTypeCode: 'CIRCLE',\n  radiusInKms: 0.2,\n  clientId: 1028,\n  latitude: 13.045104,\n  longitude: 77.620917,\n  isHighAlert: true\n}, {\n  createdOnDt: 1501170378000,\n  createdByUserId: 12,\n  isActiveFl: true,\n  geofenceId: 43602,\n  geofenceName: 'DDI71069',\n  centerCords: 'POINT(15.5259098 73.8273408)',\n  shapeTypeCode: 'CIRCLE',\n  radiusInKms: 2.0,\n  clientId: 1028,\n  latitude: 15.5259098,\n  longitude: 73.8273408,\n  isHighAlert: true\n}, {\n  createdOnDt: 1501170378000,\n  createdByUserId: 12,\n  isActiveFl: true,\n  geofenceId: 43601,\n  geofenceName: 'DPI65889',\n  centerCords: 'POINT(23.01475 72.59657)',\n  shapeTypeCode: 'CIRCLE',\n  radiusInKms: 0.2,\n  clientId: 1028,\n  latitude: 23.01475,\n  longitude: 72.59657,\n  isHighAlert: true\n}, {\n  createdOnDt: 1501170378000,\n  createdByUserId: 12,\n  isActiveFl: true,\n  geofenceId: 43600,\n  geofenceName: 'DPI65948',\n  centerCords: 'POINT(23.0520013 72.52566039999999)',\n  shapeTypeCode: 'CIRCLE',\n  radiusInKms: 0.3,\n  clientId: 1028,\n  latitude: 23.0520013,\n  longitude: 72.52566039999999,\n  isHighAlert: true\n}, {\n  createdOnDt: 1501170378000,\n  createdByUserId: 12,\n  isActiveFl: true,\n  geofenceId: 43599,\n  geofenceName: 'DPI66351',\n  centerCords: 'POINT(22.29501 73.15332)',\n  shapeTypeCode: 'CIRCLE',\n  radiusInKms: 0.2,\n  clientId: 1028,\n  latitude: 22.29501,\n  longitude: 73.15332,\n  isHighAlert: true\n}, {\n  createdOnDt: 1501170378000,\n  createdByUserId: 12,\n  isActiveFl: true,\n  geofenceId: 43598,\n  geofenceName: 'DPI66322',\n  centerCords: 'POINT(23.04626 72.53094)',\n  shapeTypeCode: 'CIRCLE',\n  radiusInKms: 0.2,\n  clientId: 1028,\n  latitude: 23.04626,\n  longitude: 72.53094,\n  isHighAlert: true\n}, {\n  createdOnDt: 1501170378000,\n  createdByUserId: 12,\n  isActiveFl: true,\n  geofenceId: 43597,\n  geofenceName: 'DPI66258',\n  centerCords: 'POINT(23.02449 72.50715)',\n  shapeTypeCode: 'CIRCLE',\n  radiusInKms: 0.2,\n  clientId: 1028,\n  latitude: 23.02449,\n  longitude: 72.50715,\n  isHighAlert: true\n}, {\n  createdOnDt: 1501170378000,\n  createdByUserId: 12,\n  isActiveFl: true,\n  geofenceId: 43596,\n  geofenceName: 'DPI66182',\n  centerCords: 'POINT(23.06148 72.55301)',\n  shapeTypeCode: 'CIRCLE',\n  radiusInKms: 0.2,\n  clientId: 1028,\n  latitude: 23.06148,\n  longitude: 72.55301,\n  isHighAlert: true\n}, {\n  createdOnDt: 1501170378000,\n  createdByUserId: 12,\n  isActiveFl: true,\n  geofenceId: 43595,\n  geofenceName: 'DPI66277',\n  centerCords: 'POINT(23.001099 72.59958699999993)',\n  shapeTypeCode: 'CIRCLE',\n  radiusInKms: 2.0,\n  clientId: 1028,\n  latitude: 23.001099,\n  longitude: 72.59958699999993,\n  isHighAlert: true\n}, {\n  createdOnDt: 1501170378000,\n  createdByUserId: 12,\n  isActiveFl: true,\n  geofenceId: 43594,\n  geofenceName: 'DPI66483',\n  centerCords: 'POINT(23.06612 72.53113)',\n  shapeTypeCode: 'CIRCLE',\n  radiusInKms: 0.2,\n  clientId: 1028,\n  latitude: 23.06612,\n  longitude: 72.53113,\n  isHighAlert: true\n}, {\n  createdOnDt: 1501170378000,\n  createdByUserId: 12,\n  isActiveFl: true,\n  geofenceId: 43593,\n  geofenceName: 'DPI66319',\n  centerCords: 'POINT(21.7026954 72.99098119999996)',\n  shapeTypeCode: 'CIRCLE',\n  radiusInKms: 2.0,\n  clientId: 1028,\n  latitude: 21.7026954,\n  longitude: 72.99098119999996,\n  isHighAlert: true\n}, {\n  createdOnDt: 1501170378000,\n  createdByUserId: 12,\n  isActiveFl: true,\n  geofenceId: 43592,\n  geofenceName: 'DDI71086',\n  centerCords: 'POINT(18.95498 72.81439)',\n  shapeTypeCode: 'CIRCLE',\n  radiusInKms: 0.2,\n  clientId: 1028,\n  latitude: 18.95498,\n  longitude: 72.81439,\n  isHighAlert: true\n}, {\n  createdOnDt: 1501170378000,\n  createdByUserId: 12,\n  isActiveFl: true,\n  geofenceId: 43591,\n  geofenceName: 'DPI66982',\n  centerCords: 'POINT(23.184955152574055 72.62940287590028)',\n  shapeTypeCode: 'CIRCLE',\n  radiusInKms: 0.7,\n  clientId: 1028,\n  latitude: 23.184955152574055,\n  longitude: 72.62940287590028,\n  isHighAlert: true\n}, {\n  createdOnDt: 1501170378000,\n  createdByUserId: 12,\n  isActiveFl: true,\n  geofenceId: 43590,\n  geofenceName: 'DDI71050',\n  centerCords: 'POINT(18.52 73.857)',\n  shapeTypeCode: 'CIRCLE',\n  radiusInKms: 0.2,\n  clientId: 1028,\n  latitude: 18.52,\n  longitude: 73.857,\n  isHighAlert: true\n}, {\n  createdOnDt: 1501170378000,\n  createdByUserId: 12,\n  isActiveFl: true,\n  geofenceId: 43589,\n  geofenceName: 'DPI65996',\n  centerCords: 'POINT(21.17602 72.81808)',\n  shapeTypeCode: 'CIRCLE',\n  radiusInKms: 0.2,\n  clientId: 1028,\n  latitude: 21.17602,\n  longitude: 72.81808,\n  isHighAlert: true\n}, {\n  createdOnDt: 1501170378000,\n  createdByUserId: 12,\n  isActiveFl: true,\n  geofenceId: 43588,\n  geofenceName: 'DPI66391',\n  centerCords: 'POINT(23.10301 72.59568)',\n  shapeTypeCode: 'CIRCLE',\n  radiusInKms: 0.2,\n  clientId: 1028,\n  latitude: 23.10301,\n  longitude: 72.59568,\n  isHighAlert: true\n}, {\n  createdOnDt: 1501170378000,\n  createdByUserId: 12,\n  isActiveFl: true,\n  geofenceId: 43587,\n  geofenceName: 'DPI66554',\n  centerCords: 'POINT(21.4666571 72.99628989999997)',\n  shapeTypeCode: 'CIRCLE',\n  radiusInKms: 2.0,\n  clientId: 1028,\n  latitude: 21.4666571,\n  longitude: 72.99628989999997,\n  isHighAlert: true\n}, {\n  createdOnDt: 1501170378000,\n  createdByUserId: 12,\n  isActiveFl: true,\n  geofenceId: 43586,\n  geofenceName: 'DPI65894',\n  centerCords: 'POINT(23.01721 72.52999)',\n  shapeTypeCode: 'CIRCLE',\n  radiusInKms: 0.2,\n  clientId: 1028,\n  latitude: 23.01721,\n  longitude: 72.52999,\n  isHighAlert: true\n}, {\n  createdOnDt: 1501170378000,\n  createdByUserId: 12,\n  isActiveFl: true,\n  geofenceId: 43585,\n  geofenceName: 'DPI66417',\n  centerCords: 'POINT(23.053547 72.518011)',\n  shapeTypeCode: 'CIRCLE',\n  radiusInKms: 0.2,\n  clientId: 1028,\n  latitude: 23.053547,\n  longitude: 72.518011,\n  isHighAlert: true\n}, {\n  createdOnDt: 1501170378000,\n  createdByUserId: 12,\n  isActiveFl: true,\n  geofenceId: 43584,\n  geofenceName: 'DDI71087',\n  centerCords: 'POINT(17.44254 78.38158)',\n  shapeTypeCode: 'CIRCLE',\n  radiusInKms: 0.3,\n  clientId: 1028,\n  latitude: 17.44254,\n  longitude: 78.38158,\n  isHighAlert: true\n}, {\n  createdOnDt: 1501170378000,\n  createdByUserId: 12,\n  isActiveFl: true,\n  geofenceId: 43583,\n  geofenceName: 'DPI66752',\n  centerCords: 'POINT(21.236641 72.875723)',\n  shapeTypeCode: 'CIRCLE',\n  radiusInKms: 0.5,\n  clientId: 1028,\n  latitude: 21.236641,\n  longitude: 72.875723,\n  isHighAlert: true\n}, {\n  createdOnDt: 1501170378000,\n  createdByUserId: 12,\n  isActiveFl: true,\n  geofenceId: 43582,\n  geofenceName: 'DDI71084',\n  centerCords: 'POINT(19.14409 72.8343)',\n  shapeTypeCode: 'CIRCLE',\n  radiusInKms: 0.2,\n  clientId: 1028,\n  latitude: 19.14409,\n  longitude: 72.8343,\n  isHighAlert: true\n}, {\n  createdOnDt: 1501170378000,\n  createdByUserId: 12,\n  isActiveFl: true,\n  geofenceId: 43581,\n  geofenceName: 'DDI71074',\n  centerCords: 'POINT(18.524 73.955)',\n  shapeTypeCode: 'CIRCLE',\n  radiusInKms: 0.2,\n  clientId: 1028,\n  latitude: 18.524,\n  longitude: 73.955,\n  isHighAlert: true\n}, {\n  createdOnDt: 1501170378000,\n  createdByUserId: 12,\n  isActiveFl: true,\n  geofenceId: 43580,\n  geofenceName: 'DDI71064',\n  centerCords: 'POINT(17.452752 78.363323)',\n  shapeTypeCode: 'CIRCLE',\n  radiusInKms: 0.4,\n  clientId: 1028,\n  latitude: 17.452752,\n  longitude: 78.363323,\n  isHighAlert: true\n}, {\n  createdOnDt: 1501170378000,\n  createdByUserId: 12,\n  isActiveFl: true,\n  geofenceId: 43579,\n  geofenceName: 'DDI71057',\n  centerCords: 'POINT(17.413295 78.450499)',\n  shapeTypeCode: 'CIRCLE',\n  radiusInKms: 0.4,\n  clientId: 1028,\n  latitude: 17.413295,\n  longitude: 78.450499,\n  isHighAlert: true\n}, {\n  createdOnDt: 1501170378000,\n  createdByUserId: 12,\n  isActiveFl: true,\n  geofenceId: 43578,\n  geofenceName: 'DPI66608',\n  centerCords: 'POINT(22.32248 73.16536)',\n  shapeTypeCode: 'CIRCLE',\n  radiusInKms: 0.2,\n  clientId: 1028,\n  latitude: 22.32248,\n  longitude: 73.16536,\n  isHighAlert: true\n}, {\n  createdOnDt: 1501170378000,\n  createdByUserId: 12,\n  isActiveFl: true,\n  geofenceId: 43577,\n  geofenceName: 'DPI66467',\n  centerCords: 'POINT(23.04925 72.58999)',\n  shapeTypeCode: 'CIRCLE',\n  radiusInKms: 0.2,\n  clientId: 1028,\n  latitude: 23.04925,\n  longitude: 72.58999,\n  isHighAlert: true\n}, {\n  createdOnDt: 1501170378000,\n  createdByUserId: 12,\n  isActiveFl: true,\n  geofenceId: 43576,\n  geofenceName: 'DPI66026',\n  centerCords: 'POINT(21.19396 72.79858)',\n  shapeTypeCode: 'CIRCLE',\n  radiusInKms: 0.3,\n  clientId: 1028,\n  latitude: 21.19396,\n  longitude: 72.79858,\n  isHighAlert: true\n}, {\n  createdOnDt: 1501170378000,\n  createdByUserId: 12,\n  isActiveFl: true,\n  geofenceId: 43575,\n  geofenceName: 'DPI66596',\n  centerCords: 'POINT(22.67771 72.88096)',\n  shapeTypeCode: 'CIRCLE',\n  radiusInKms: 0.2,\n  clientId: 1028,\n  latitude: 22.67771,\n  longitude: 72.88096,\n  isHighAlert: true\n}, {\n  createdOnDt: 1501170378000,\n  createdByUserId: 12,\n  isActiveFl: true,\n  geofenceId: 43574,\n  geofenceName: 'DDI71060',\n  centerCords: 'POINT(12.9929643 77.66164779999997)',\n  shapeTypeCode: 'CIRCLE',\n  radiusInKms: 0.2,\n  clientId: 1028,\n  latitude: 12.9929643,\n  longitude: 77.66164779999997,\n  isHighAlert: true\n}, {\n  createdOnDt: 1501170378000,\n  createdByUserId: 12,\n  isActiveFl: true,\n  geofenceId: 43573,\n  geofenceName: 'DPI66558',\n  centerCords: 'POINT(22.35215 73.20098)',\n  shapeTypeCode: 'CIRCLE',\n  radiusInKms: 0.2,\n  clientId: 1028,\n  latitude: 22.35215,\n  longitude: 73.20098,\n  isHighAlert: true\n}, {\n  createdOnDt: 1501170378000,\n  createdByUserId: 12,\n  isActiveFl: true,\n  geofenceId: 43572,\n  geofenceName: 'DPI66551',\n  centerCords: 'POINT(22.31995 73.15962)',\n  shapeTypeCode: 'CIRCLE',\n  radiusInKms: 0.2,\n  clientId: 1028,\n  latitude: 22.31995,\n  longitude: 73.15962,\n  isHighAlert: true\n}, {\n  createdOnDt: 1501170378000,\n  createdByUserId: 12,\n  isActiveFl: true,\n  geofenceId: 43571,\n  geofenceName: 'DPI65792',\n  centerCords: 'POINT(23.03781 72.56174)',\n  shapeTypeCode: 'CIRCLE',\n  radiusInKms: 0.2,\n  clientId: 1028,\n  latitude: 23.03781,\n  longitude: 72.56174,\n  isHighAlert: true\n}, {\n  createdOnDt: 1501170378000,\n  createdByUserId: 12,\n  isActiveFl: true,\n  geofenceId: 43570,\n  geofenceName: 'DDI71046',\n  centerCords: 'POINT(23.02456 72.55634)',\n  shapeTypeCode: 'CIRCLE',\n  radiusInKms: 0.2,\n  clientId: 1028,\n  latitude: 23.02456,\n  longitude: 72.55634,\n  isHighAlert: true\n}, {\n  createdOnDt: 1501170378000,\n  createdByUserId: 12,\n  isActiveFl: true,\n  geofenceId: 43569,\n  geofenceName: 'DPI66560',\n  centerCords: 'POINT(22.99849 72.66476)',\n  shapeTypeCode: 'CIRCLE',\n  radiusInKms: 0.2,\n  clientId: 1028,\n  latitude: 22.99849,\n  longitude: 72.66476,\n  isHighAlert: true\n}, {\n  createdOnDt: 1501170378000,\n  createdByUserId: 12,\n  isActiveFl: true,\n  geofenceId: 43568,\n  geofenceName: 'DDI71085',\n  centerCords: 'POINT(12.8574 77.6631)',\n  shapeTypeCode: 'CIRCLE',\n  radiusInKms: 0.2,\n  clientId: 1028,\n  latitude: 12.8574,\n  longitude: 77.6631,\n  isHighAlert: true\n}, {\n  createdOnDt: 1501170378000,\n  createdByUserId: 12,\n  isActiveFl: true,\n  geofenceId: 43567,\n  geofenceName: 'DPI67020',\n  centerCords: 'POINT(23.471523 72.391837)',\n  shapeTypeCode: 'CIRCLE',\n  radiusInKms: 2.0,\n  clientId: 1028,\n  latitude: 23.471523,\n  longitude: 72.391837,\n  isHighAlert: true\n}, {\n  createdOnDt: 1501170378000,\n  createdByUserId: 12,\n  isActiveFl: true,\n  geofenceId: 43566,\n  geofenceName: 'DDI71053',\n  centerCords: 'POINT(13.025 77.572)',\n  shapeTypeCode: 'CIRCLE',\n  radiusInKms: 0.2,\n  clientId: 1028,\n  latitude: 13.025,\n  longitude: 77.572,\n  isHighAlert: true\n}, {\n  createdOnDt: 1501170378000,\n  createdByUserId: 12,\n  isActiveFl: true,\n  geofenceId: 43565,\n  geofenceName: 'DDI71072',\n  centerCords: 'POINT(12.981 77.64)',\n  shapeTypeCode: 'CIRCLE',\n  radiusInKms: 0.2,\n  clientId: 1028,\n  latitude: 12.981,\n  longitude: 77.64,\n  isHighAlert: true\n}, {\n  createdOnDt: 1501170378000,\n  createdByUserId: 12,\n  isActiveFl: true,\n  geofenceId: 43564,\n  geofenceName: 'DDI71034',\n  centerCords: 'POINT(12.9719506 77.60668759999999)',\n  shapeTypeCode: 'CIRCLE',\n  radiusInKms: 0.2,\n  clientId: 1028,\n  latitude: 12.9719506,\n  longitude: 77.60668759999999,\n  isHighAlert: true\n}, {\n  createdOnDt: 1501170378000,\n  createdByUserId: 12,\n  isActiveFl: true,\n  geofenceId: 43563,\n  geofenceName: 'DPI66677',\n  centerCords: 'POINT(21.143464 72.794684)',\n  shapeTypeCode: 'CIRCLE',\n  radiusInKms: 0.3,\n  clientId: 1028,\n  latitude: 21.143464,\n  longitude: 72.794684,\n  isHighAlert: true\n}, {\n  createdOnDt: 1501170378000,\n  createdByUserId: 12,\n  isActiveFl: true,\n  geofenceId: 43562,\n  geofenceName: 'DPI66577',\n  centerCords: 'POINT(23.04618 72.66856)',\n  shapeTypeCode: 'CIRCLE',\n  radiusInKms: 0.2,\n  clientId: 1028,\n  latitude: 23.04618,\n  longitude: 72.66856,\n  isHighAlert: true\n}, {\n  createdOnDt: 1501170378000,\n  createdByUserId: 12,\n  isActiveFl: true,\n  geofenceId: 43561,\n  geofenceName: 'DPI66353',\n  centerCords: 'POINT(21.6009 73.01861)',\n  shapeTypeCode: 'CIRCLE',\n  radiusInKms: 0.4,\n  clientId: 1028,\n  latitude: 21.6009,\n  longitude: 73.01861,\n  isHighAlert: true\n}, {\n  createdOnDt: 1501170378000,\n  createdByUserId: 12,\n  isActiveFl: true,\n  geofenceId: 43560,\n  geofenceName: 'DPI66447',\n  centerCords: 'POINT(22.3005 73.23052)',\n  shapeTypeCode: 'CIRCLE',\n  radiusInKms: 0.2,\n  clientId: 1028,\n  latitude: 22.3005,\n  longitude: 73.23052,\n  isHighAlert: true\n}, {\n  createdOnDt: 1501170378000,\n  createdByUserId: 12,\n  isActiveFl: true,\n  geofenceId: 43559,\n  geofenceName: 'DPI67000',\n  centerCords: 'POINT(21.14168 73.09557)',\n  shapeTypeCode: 'CIRCLE',\n  radiusInKms: 0.2,\n  clientId: 1028,\n  latitude: 21.14168,\n  longitude: 73.09557,\n  isHighAlert: true\n}, {\n  createdOnDt: 1501170378000,\n  createdByUserId: 12,\n  isActiveFl: true,\n  geofenceId: 43558,\n  geofenceName: 'DPI66356',\n  centerCords: 'POINT(21.158187 72.76936)',\n  shapeTypeCode: 'CIRCLE',\n  radiusInKms: 0.4,\n  clientId: 1028,\n  latitude: 21.158187,\n  longitude: 72.76936,\n  isHighAlert: true\n}, {\n  createdOnDt: 1499795175000,\n  createdByUserId: 6392,\n  isActiveFl: true,\n  geofenceId: 21967,\n  geofenceName: 'DPI67090',\n  centerCords: 'POINT(28.5819971 77.36466589999998)',\n  shapeTypeCode: 'CIRCLE',\n  radiusInKms: 0.2,\n  clientId: 1028,\n  latitude: 28.5819971,\n  longitude: 77.36466589999998,\n  isHighAlert: true\n}, {\n  createdOnDt: 1499795175000,\n  createdByUserId: 6392,\n  isActiveFl: true,\n  geofenceId: 21966,\n  geofenceName: 'DPI67089',\n  centerCords: 'POINT(28.611 77.094)',\n  shapeTypeCode: 'CIRCLE',\n  radiusInKms: 0.2,\n  clientId: 1028,\n  latitude: 28.611,\n  longitude: 77.094,\n  isHighAlert: true\n}, {\n  createdOnDt: 1499795175000,\n  createdByUserId: 6392,\n  isActiveFl: true,\n  geofenceId: 21965,\n  geofenceName: 'DPI67083',\n  centerCords: 'POINT(26.480565 80.316682)',\n  shapeTypeCode: 'CIRCLE',\n  radiusInKms: 0.5,\n  clientId: 1028,\n  latitude: 26.480565,\n  longitude: 80.316682,\n  isHighAlert: true\n}, {\n  createdOnDt: 1499795175000,\n  createdByUserId: 6392,\n  isActiveFl: true,\n  geofenceId: 21964,\n  geofenceName: 'DPI67078',\n  centerCords: 'POINT(28.5639789 77.38467430000003)',\n  shapeTypeCode: 'CIRCLE',\n  radiusInKms: 0.2,\n  clientId: 1028,\n  latitude: 28.5639789,\n  longitude: 77.38467430000003,\n  isHighAlert: true\n}, {\n  createdOnDt: 1499795175000,\n  createdByUserId: 6392,\n  isActiveFl: true,\n  geofenceId: 21963,\n  geofenceName: 'DPI67077',\n  centerCords: 'POINT(28.5925493 77.04138169999999)',\n  shapeTypeCode: 'CIRCLE',\n  radiusInKms: 0.21,\n  clientId: 1028,\n  latitude: 28.5925493,\n  longitude: 77.04138169999999,\n  isHighAlert: true\n}, {\n  createdOnDt: 1499795175000,\n  createdByUserId: 6392,\n  isActiveFl: true,\n  geofenceId: 21962,\n  geofenceName: 'DPI67074',\n  centerCords: 'POINT(26.2765244 73.00460969999995)',\n  shapeTypeCode: 'CIRCLE',\n  radiusInKms: 1.0,\n  clientId: 1028,\n  latitude: 26.2765244,\n  longitude: 73.00460969999995,\n  isHighAlert: true\n}, {\n  createdOnDt: 1499795175000,\n  createdByUserId: 6392,\n  isActiveFl: true,\n  geofenceId: 21961,\n  geofenceName: 'DPI67068',\n  centerCords: 'POINT(26.924 81.178)',\n  shapeTypeCode: 'CIRCLE',\n  radiusInKms: 0.2,\n  clientId: 1028,\n  latitude: 26.924,\n  longitude: 81.178,\n  isHighAlert: true\n}, {\n  createdOnDt: 1499795175000,\n  createdByUserId: 6392,\n  isActiveFl: true,\n  geofenceId: 21960,\n  geofenceName: 'DPI67066',\n  centerCords: 'POINT(26.809 80.9)',\n  shapeTypeCode: 'CIRCLE',\n  radiusInKms: 0.2,\n  clientId: 1028,\n  latitude: 26.809,\n  longitude: 80.9,\n  isHighAlert: true\n}, {\n  createdOnDt: 1499795175000,\n  createdByUserId: 6392,\n  isActiveFl: true,\n  geofenceId: 21959,\n  geofenceName: 'DPI67065',\n  centerCords: 'POINT(28.587266 77.08529440000007)',\n  shapeTypeCode: 'CIRCLE',\n  radiusInKms: 0.2,\n  clientId: 1028,\n  latitude: 28.587266,\n  longitude: 77.08529440000007,\n  isHighAlert: true\n}, {\n  createdOnDt: 1499795175000,\n  createdByUserId: 6392,\n  isActiveFl: true,\n  geofenceId: 21958,\n  geofenceName: 'DPI67061',\n  centerCords: 'POINT(28.701567 77.28090129999998)',\n  shapeTypeCode: 'CIRCLE',\n  radiusInKms: 0.2,\n  clientId: 1028,\n  latitude: 28.701567,\n  longitude: 77.28090129999998,\n  isHighAlert: true\n}, {\n  createdOnDt: 1499795175000,\n  createdByUserId: 6392,\n  isActiveFl: true,\n  geofenceId: 21957,\n  geofenceName: 'DPI67060',\n  centerCords: 'POINT(28.5055248 77.2316617)',\n  shapeTypeCode: 'CIRCLE',\n  radiusInKms: 0.2,\n  clientId: 1028,\n  latitude: 28.5055248,\n  longitude: 77.2316617,\n  isHighAlert: true\n}, {\n  createdOnDt: 1499795175000,\n  createdByUserId: 6392,\n  isActiveFl: true,\n  geofenceId: 21956,\n  geofenceName: 'DPI67055',\n  centerCords: 'POINT(28.592 77.162)',\n  shapeTypeCode: 'CIRCLE',\n  radiusInKms: 0.6,\n  clientId: 1028,\n  latitude: 28.592,\n  longitude: 77.162,\n  isHighAlert: true\n}, {\n  createdOnDt: 1499795175000,\n  createdByUserId: 6392,\n  isActiveFl: true,\n  geofenceId: 21955,\n  geofenceName: 'DPI67053',\n  centerCords: 'POINT(28.667 77.217)',\n  shapeTypeCode: 'CIRCLE',\n  radiusInKms: 0.6,\n  clientId: 1028,\n  latitude: 28.667,\n  longitude: 77.217,\n  isHighAlert: true\n}, {\n  createdOnDt: 1499795175000,\n  createdByUserId: 6392,\n  isActiveFl: true,\n  geofenceId: 21954,\n  geofenceName: 'DPI67051',\n  centerCords: 'POINT(28.576975129500177 77.31643438339235)',\n  shapeTypeCode: 'CIRCLE',\n  radiusInKms: 0.2,\n  clientId: 1028,\n  latitude: 28.576975129500177,\n  longitude: 77.31643438339235,\n  isHighAlert: true\n}, {\n  createdOnDt: 1499795175000,\n  createdByUserId: 6392,\n  isActiveFl: true,\n  geofenceId: 21953,\n  geofenceName: 'DPI67049',\n  centerCords: 'POINT(26.7973333 83.3901167)',\n  shapeTypeCode: 'CIRCLE',\n  radiusInKms: 0.2,\n  clientId: 1028,\n  latitude: 26.7973333,\n  longitude: 83.3901167,\n  isHighAlert: true\n}, {\n  createdOnDt: 1499795175000,\n  createdByUserId: 6392,\n  isActiveFl: true,\n  geofenceId: 21952,\n  geofenceName: 'DPI67041',\n  centerCords: 'POINT(25.31 83.003)',\n  shapeTypeCode: 'CIRCLE',\n  radiusInKms: 0.2,\n  clientId: 1028,\n  latitude: 25.31,\n  longitude: 83.003,\n  isHighAlert: true\n}, {\n  createdOnDt: 1499795175000,\n  createdByUserId: 6392,\n  isActiveFl: true,\n  geofenceId: 21951,\n  geofenceName: 'DPI67022',\n  centerCords: 'POINT(28.631 77.435)',\n  shapeTypeCode: 'CIRCLE',\n  radiusInKms: 0.2,\n  clientId: 1028,\n  latitude: 28.631,\n  longitude: 77.435,\n  isHighAlert: true\n}, {\n  createdOnDt: 1499795175000,\n  createdByUserId: 6392,\n  isActiveFl: true,\n  geofenceId: 21950,\n  geofenceName: 'DPI67018',\n  centerCords: 'POINT(28.621 77.285)',\n  shapeTypeCode: 'CIRCLE',\n  radiusInKms: 0.2,\n  clientId: 1028,\n  latitude: 28.621,\n  longitude: 77.285,\n  isHighAlert: true\n}, {\n  createdOnDt: 1499795175000,\n  createdByUserId: 6392,\n  isActiveFl: true,\n  geofenceId: 21949,\n  geofenceName: 'DPI67012',\n  centerCords: 'POINT(27.213 78.026)',\n  shapeTypeCode: 'CIRCLE',\n  radiusInKms: 0.2,\n  clientId: 1028,\n  latitude: 27.213,\n  longitude: 78.026,\n  isHighAlert: true\n}, {\n  createdOnDt: 1499795175000,\n  createdByUserId: 6392,\n  isActiveFl: true,\n  geofenceId: 21948,\n  geofenceName: 'DPI67010',\n  centerCords: 'POINT(29.0043312 77.033564)',\n  shapeTypeCode: 'CIRCLE',\n  radiusInKms: 0.2,\n  clientId: 1028,\n  latitude: 29.0043312,\n  longitude: 77.033564,\n  isHighAlert: true\n}, {\n  createdOnDt: 1499795175000,\n  createdByUserId: 6392,\n  isActiveFl: true,\n  geofenceId: 21947,\n  geofenceName: 'DPI67003',\n  centerCords: 'POINT(28.564077 77.32413300000007)',\n  shapeTypeCode: 'CIRCLE',\n  radiusInKms: 0.8,\n  clientId: 1028,\n  latitude: 28.564077,\n  longitude: 77.32413300000007,\n  isHighAlert: true\n}, {\n  createdOnDt: 1499795175000,\n  createdByUserId: 6392,\n  isActiveFl: true,\n  geofenceId: 21946,\n  geofenceName: 'DPI67001',\n  centerCords: 'POINT(28.97 77.722)',\n  shapeTypeCode: 'CIRCLE',\n  radiusInKms: 0.2,\n  clientId: 1028,\n  latitude: 28.97,\n  longitude: 77.722,\n  isHighAlert: true\n}, {\n  createdOnDt: 1499795175000,\n  createdByUserId: 6392,\n  isActiveFl: true,\n  geofenceId: 21945,\n  geofenceName: 'DPI66996',\n  centerCords: 'POINT(28.588 77.398)',\n  shapeTypeCode: 'CIRCLE',\n  radiusInKms: 0.2,\n  clientId: 1028,\n  latitude: 28.588,\n  longitude: 77.398,\n  isHighAlert: true\n}, {\n  createdOnDt: 1499795175000,\n  createdByUserId: 6392,\n  isActiveFl: true,\n  geofenceId: 21944,\n  geofenceName: 'DPI66993',\n  centerCords: 'POINT(28.729 77.767)',\n  shapeTypeCode: 'CIRCLE',\n  radiusInKms: 0.2,\n  clientId: 1028,\n  latitude: 28.729,\n  longitude: 77.767,\n  isHighAlert: true\n}, {\n  createdOnDt: 1499795175000,\n  createdByUserId: 6392,\n  isActiveFl: true,\n  geofenceId: 21943,\n  geofenceName: 'DPI66981',\n  centerCords: 'POINT(26.891 75.771)',\n  shapeTypeCode: 'CIRCLE',\n  radiusInKms: 0.2,\n  clientId: 1028,\n  latitude: 26.891,\n  longitude: 75.771,\n  isHighAlert: true\n}, {\n  createdOnDt: 1499795175000,\n  createdByUserId: 6392,\n  isActiveFl: true,\n  geofenceId: 21942,\n  geofenceName: 'DPI66976',\n  centerCords: 'POINT(28.6944583 76.9245956)',\n  shapeTypeCode: 'CIRCLE',\n  radiusInKms: 0.2,\n  clientId: 1028,\n  latitude: 28.6944583,\n  longitude: 76.9245956,\n  isHighAlert: true\n}, {\n  createdOnDt: 1499795175000,\n  createdByUserId: 6392,\n  isActiveFl: true,\n  geofenceId: 21941,\n  geofenceName: 'DPI66966',\n  centerCords: 'POINT(26.941 75.724)',\n  shapeTypeCode: 'CIRCLE',\n  radiusInKms: 0.8,\n  clientId: 1028,\n  latitude: 26.941,\n  longitude: 75.724,\n  isHighAlert: true\n}, {\n  createdOnDt: 1499795175000,\n  createdByUserId: 6392,\n  isActiveFl: true,\n  geofenceId: 21940,\n  geofenceName: 'DPI66961',\n  centerCords: 'POINT(28.569343195867997 77.32136964797975)',\n  shapeTypeCode: 'CIRCLE',\n  radiusInKms: 0.2,\n  clientId: 1028,\n  latitude: 28.569343195867997,\n  longitude: 77.32136964797975,\n  isHighAlert: true\n}, {\n  createdOnDt: 1499795175000,\n  createdByUserId: 6392,\n  isActiveFl: true,\n  geofenceId: 21939,\n  geofenceName: 'DPI66960',\n  centerCords: 'POINT(26.505 80.23)',\n  shapeTypeCode: 'CIRCLE',\n  radiusInKms: 0.2,\n  clientId: 1028,\n  latitude: 26.505,\n  longitude: 80.23,\n  isHighAlert: true\n}, {\n  createdOnDt: 1499795175000,\n  createdByUserId: 6392,\n  isActiveFl: true,\n  geofenceId: 21938,\n  geofenceName: 'DPI66955',\n  centerCords: 'POINT(28.629 77.076)',\n  shapeTypeCode: 'CIRCLE',\n  radiusInKms: 0.2,\n  clientId: 1028,\n  latitude: 28.629,\n  longitude: 77.076,\n  isHighAlert: true\n}, {\n  createdOnDt: 1499795175000,\n  createdByUserId: 6392,\n  isActiveFl: true,\n  geofenceId: 21937,\n  geofenceName: 'DPI66954',\n  centerCords: 'POINT(28.7147672 77.1161673)',\n  shapeTypeCode: 'CIRCLE',\n  radiusInKms: 0.2,\n  clientId: 1028,\n  latitude: 28.7147672,\n  longitude: 77.1161673,\n  isHighAlert: true\n}, {\n  createdOnDt: 1499795175000,\n  createdByUserId: 6392,\n  isActiveFl: true,\n  geofenceId: 21936,\n  geofenceName: 'DPI66952',\n  centerCords: 'POINT(28.341433670809092 77.32449978590013)',\n  shapeTypeCode: 'CIRCLE',\n  radiusInKms: 0.2,\n  clientId: 1028,\n  latitude: 28.341433670809092,\n  longitude: 77.32449978590013,\n  isHighAlert: true\n}, {\n  createdOnDt: 1499795175000,\n  createdByUserId: 6392,\n  isActiveFl: true,\n  geofenceId: 21935,\n  geofenceName: 'DPI66948',\n  centerCords: 'POINT(26.22 81.255)',\n  shapeTypeCode: 'CIRCLE',\n  radiusInKms: 0.2,\n  clientId: 1028,\n  latitude: 26.22,\n  longitude: 81.255,\n  isHighAlert: true\n}, {\n  createdOnDt: 1499795175000,\n  createdByUserId: 6392,\n  isActiveFl: true,\n  geofenceId: 21934,\n  geofenceName: 'DPI66947',\n  centerCords: 'POINT(26.854 75.805)',\n  shapeTypeCode: 'CIRCLE',\n  radiusInKms: 0.2,\n  clientId: 1028,\n  latitude: 26.854,\n  longitude: 75.805,\n  isHighAlert: true\n}, {\n  createdOnDt: 1499795175000,\n  createdByUserId: 6392,\n  isActiveFl: true,\n  geofenceId: 21933,\n  geofenceName: 'DPI66942',\n  centerCords: 'POINT(28.682 77.056)',\n  shapeTypeCode: 'CIRCLE',\n  radiusInKms: 0.2,\n  clientId: 1028,\n  latitude: 28.682,\n  longitude: 77.056,\n  isHighAlert: true\n}, {\n  createdOnDt: 1499795175000,\n  createdByUserId: 6392,\n  isActiveFl: true,\n  geofenceId: 21932,\n  geofenceName: 'DPI66936',\n  centerCords: 'POINT(28.598096680444872 77.08368301391603)',\n  shapeTypeCode: 'CIRCLE',\n  radiusInKms: 0.21,\n  clientId: 1028,\n  latitude: 28.598096680444872,\n  longitude: 77.08368301391603,\n  isHighAlert: true\n}, {\n  createdOnDt: 1499795175000,\n  createdByUserId: 6392,\n  isActiveFl: true,\n  geofenceId: 21931,\n  geofenceName: 'DPI66928',\n  centerCords: 'POINT(26.8661685 80.9083369)',\n  shapeTypeCode: 'CIRCLE',\n  radiusInKms: 0.2,\n  clientId: 1028,\n  latitude: 26.8661685,\n  longitude: 80.9083369,\n  isHighAlert: true\n}, {\n  createdOnDt: 1499795175000,\n  createdByUserId: 6392,\n  isActiveFl: true,\n  geofenceId: 21930,\n  geofenceName: 'DPI66927',\n  centerCords: 'POINT(28.0108636 73.33265129999995)',\n  shapeTypeCode: 'CIRCLE',\n  radiusInKms: 0.2,\n  clientId: 1028,\n  latitude: 28.0108636,\n  longitude: 73.33265129999995,\n  isHighAlert: true\n}, {\n  createdOnDt: 1499795175000,\n  createdByUserId: 6392,\n  isActiveFl: true,\n  geofenceId: 21929,\n  geofenceName: 'DPI66921',\n  centerCords: 'POINT(26.854 81.022)',\n  shapeTypeCode: 'CIRCLE',\n  radiusInKms: 0.2,\n  clientId: 1028,\n  latitude: 26.854,\n  longitude: 81.022,\n  isHighAlert: true\n}, {\n  createdOnDt: 1499795175000,\n  createdByUserId: 6392,\n  isActiveFl: true,\n  geofenceId: 21928,\n  geofenceName: 'DPI66919',\n  centerCords: 'POINT(28.637229099607808 77.28653311729433)',\n  shapeTypeCode: 'CIRCLE',\n  radiusInKms: 0.2,\n  clientId: 1028,\n  latitude: 28.637229099607808,\n  longitude: 77.28653311729433,\n  isHighAlert: true\n}, {\n  createdOnDt: 1499795175000,\n  createdByUserId: 6392,\n  isActiveFl: true,\n  geofenceId: 21927,\n  geofenceName: 'DPI66906',\n  centerCords: 'POINT(28.145 77.336)',\n  shapeTypeCode: 'CIRCLE',\n  radiusInKms: 0.3,\n  clientId: 1028,\n  latitude: 28.145,\n  longitude: 77.336,\n  isHighAlert: true\n}, {\n  createdOnDt: 1499795175000,\n  createdByUserId: 6392,\n  isActiveFl: true,\n  geofenceId: 21926,\n  geofenceName: 'DPI66905',\n  centerCords: 'POINT(25.293 83.099)',\n  shapeTypeCode: 'CIRCLE',\n  radiusInKms: 0.2,\n  clientId: 1028,\n  latitude: 25.293,\n  longitude: 83.099,\n  isHighAlert: true\n}, {\n  createdOnDt: 1499795175000,\n  createdByUserId: 6392,\n  isActiveFl: true,\n  geofenceId: 21925,\n  geofenceName: 'DPI66903',\n  centerCords: 'POINT(25.3479579 82.98064899999997)',\n  shapeTypeCode: 'CIRCLE',\n  radiusInKms: 0.5,\n  clientId: 1028,\n  latitude: 25.3479579,\n  longitude: 82.98064899999997,\n  isHighAlert: true\n}, {\n  createdOnDt: 1499795175000,\n  createdByUserId: 6392,\n  isActiveFl: true,\n  geofenceId: 21924,\n  geofenceName: 'DPI66758',\n  centerCords: 'POINT(28.634 77.37)',\n  shapeTypeCode: 'CIRCLE',\n  radiusInKms: 0.2,\n  clientId: 1028,\n  latitude: 28.634,\n  longitude: 77.37,\n  isHighAlert: true\n}, {\n  createdOnDt: 1499795175000,\n  createdByUserId: 6392,\n  isActiveFl: true,\n  geofenceId: 21923,\n  geofenceName: 'DPI66756',\n  centerCords: 'POINT(28.640345880496913 77.10493683815004)',\n  shapeTypeCode: 'CIRCLE',\n  radiusInKms: 0.2,\n  clientId: 1028,\n  latitude: 28.640345880496913,\n  longitude: 77.10493683815004,\n  isHighAlert: true\n}, {\n  createdOnDt: 1499795175000,\n  createdByUserId: 6392,\n  isActiveFl: true,\n  geofenceId: 21922,\n  geofenceName: 'DPI66745',\n  centerCords: 'POINT(28.647 77.414)',\n  shapeTypeCode: 'CIRCLE',\n  radiusInKms: 0.2,\n  clientId: 1028,\n  latitude: 28.647,\n  longitude: 77.414,\n  isHighAlert: true\n}, {\n  createdOnDt: 1499795175000,\n  createdByUserId: 6392,\n  isActiveFl: true,\n  geofenceId: 21921,\n  geofenceName: 'DPI66742',\n  centerCords: 'POINT(26.210701 78.18766189999997)',\n  shapeTypeCode: 'CIRCLE',\n  radiusInKms: 0.25,\n  clientId: 1028,\n  latitude: 26.210701,\n  longitude: 78.18766189999997,\n  isHighAlert: true\n}, {\n  createdOnDt: 1499795175000,\n  createdByUserId: 6392,\n  isActiveFl: true,\n  geofenceId: 21920,\n  geofenceName: 'DPI66738',\n  centerCords: 'POINT(26.948 75.724)',\n  shapeTypeCode: 'CIRCLE',\n  radiusInKms: 0.2,\n  clientId: 1028,\n  latitude: 26.948,\n  longitude: 75.724,\n  isHighAlert: true\n}, {\n  createdOnDt: 1499795175000,\n  createdByUserId: 6392,\n  isActiveFl: true,\n  geofenceId: 21919,\n  geofenceName: 'DPI66723',\n  centerCords: 'POINT(28.355 79.417)',\n  shapeTypeCode: 'CIRCLE',\n  radiusInKms: 0.2,\n  clientId: 1028,\n  latitude: 28.355,\n  longitude: 79.417,\n  isHighAlert: true\n}, {\n  createdOnDt: 1499795175000,\n  createdByUserId: 6392,\n  isActiveFl: true,\n  geofenceId: 21918,\n  geofenceName: 'DPI66718',\n  centerCords: 'POINT(28.631823948910228 77.27851867675783)',\n  shapeTypeCode: 'CIRCLE',\n  radiusInKms: 0.2,\n  clientId: 1028,\n  latitude: 28.631823948910228,\n  longitude: 77.27851867675783,\n  isHighAlert: true\n}, {\n  createdOnDt: 1499795175000,\n  createdByUserId: 6392,\n  isActiveFl: true,\n  geofenceId: 21917,\n  geofenceName: 'DPI66700',\n  centerCords: 'POINT(28.606 76.986)',\n  shapeTypeCode: 'CIRCLE',\n  radiusInKms: 0.2,\n  clientId: 1028,\n  latitude: 28.606,\n  longitude: 76.986,\n  isHighAlert: true\n}, {\n  createdOnDt: 1499795175000,\n  createdByUserId: 6392,\n  isActiveFl: true,\n  geofenceId: 21916,\n  geofenceName: 'DPI66697',\n  centerCords: 'POINT(28.6446 77.18825649999997)',\n  shapeTypeCode: 'CIRCLE',\n  radiusInKms: 0.1,\n  clientId: 1028,\n  latitude: 28.6446,\n  longitude: 77.18825649999997,\n  isHighAlert: true\n}, {\n  createdOnDt: 1499795175000,\n  createdByUserId: 6392,\n  isActiveFl: true,\n  geofenceId: 21915,\n  geofenceName: 'DPI66695',\n  centerCords: 'POINT(29.219 78.965)',\n  shapeTypeCode: 'CIRCLE',\n  radiusInKms: 0.2,\n  clientId: 1028,\n  latitude: 29.219,\n  longitude: 78.965,\n  isHighAlert: true\n}, {\n  createdOnDt: 1499795175000,\n  createdByUserId: 6392,\n  isActiveFl: true,\n  geofenceId: 21914,\n  geofenceName: 'DPI66683',\n  centerCords: 'POINT(28.514 77.378)',\n  shapeTypeCode: 'CIRCLE',\n  radiusInKms: 0.2,\n  clientId: 1028,\n  latitude: 28.514,\n  longitude: 77.378,\n  isHighAlert: true\n}, {\n  createdOnDt: 1499795175000,\n  createdByUserId: 6392,\n  isActiveFl: true,\n  geofenceId: 21913,\n  geofenceName: 'DPI66658',\n  centerCords: 'POINT(25.1682261 75.8531016)',\n  shapeTypeCode: 'CIRCLE',\n  radiusInKms: 0.2,\n  clientId: 1028,\n  latitude: 25.1682261,\n  longitude: 75.8531016,\n  isHighAlert: true\n}, {\n  createdOnDt: 1499795175000,\n  createdByUserId: 6392,\n  isActiveFl: true,\n  geofenceId: 21912,\n  geofenceName: 'DPI66642',\n  centerCords: 'POINT(28.6793282 77.1955388)',\n  shapeTypeCode: 'CIRCLE',\n  radiusInKms: 0.2,\n  clientId: 1028,\n  latitude: 28.6793282,\n  longitude: 77.1955388,\n  isHighAlert: true\n}, {\n  createdOnDt: 1499795175000,\n  createdByUserId: 6392,\n  isActiveFl: true,\n  geofenceId: 21911,\n  geofenceName: 'DPI66637',\n  centerCords: 'POINT(29.3805486 78.1389945)',\n  shapeTypeCode: 'CIRCLE',\n  radiusInKms: 0.2,\n  clientId: 1028,\n  latitude: 29.3805486,\n  longitude: 78.1389945,\n  isHighAlert: true\n}, {\n  createdOnDt: 1499795175000,\n  createdByUserId: 6392,\n  isActiveFl: true,\n  geofenceId: 21910,\n  geofenceName: 'DPI66633',\n  centerCords: 'POINT(28.692 77.291)',\n  shapeTypeCode: 'CIRCLE',\n  radiusInKms: 0.2,\n  clientId: 1028,\n  latitude: 28.692,\n  longitude: 77.291,\n  isHighAlert: true\n}, {\n  createdOnDt: 1499795175000,\n  createdByUserId: 6392,\n  isActiveFl: true,\n  geofenceId: 21909,\n  geofenceName: 'DPI66632',\n  centerCords: 'POINT(28.6519647 77.27796609999996)',\n  shapeTypeCode: 'CIRCLE',\n  radiusInKms: 0.2,\n  clientId: 1028,\n  latitude: 28.6519647,\n  longitude: 77.27796609999996,\n  isHighAlert: true\n}, {\n  createdOnDt: 1499795175000,\n  createdByUserId: 6392,\n  isActiveFl: true,\n  geofenceId: 21908,\n  geofenceName: 'DPI66625',\n  centerCords: 'POINT(27.892055 79.91311029999997)',\n  shapeTypeCode: 'CIRCLE',\n  radiusInKms: 0.8,\n  clientId: 1028,\n  latitude: 27.892055,\n  longitude: 79.91311029999997,\n  isHighAlert: true\n}, {\n  createdOnDt: 1499795175000,\n  createdByUserId: 6392,\n  isActiveFl: true,\n  geofenceId: 21907,\n  geofenceName: 'DPI66611',\n  centerCords: 'POINT(28.706 77.163)',\n  shapeTypeCode: 'CIRCLE',\n  radiusInKms: 0.2,\n  clientId: 1028,\n  latitude: 28.706,\n  longitude: 77.163,\n  isHighAlert: true\n}, {\n  createdOnDt: 1499795175000,\n  createdByUserId: 6392,\n  isActiveFl: true,\n  geofenceId: 21906,\n  geofenceName: 'DPI66604',\n  centerCords: 'POINT(26.753 83.378)',\n  shapeTypeCode: 'CIRCLE',\n  radiusInKms: 0.2,\n  clientId: 1028,\n  latitude: 26.753,\n  longitude: 83.378,\n  isHighAlert: true\n}, {\n  createdOnDt: 1499795175000,\n  createdByUserId: 6392,\n  isActiveFl: true,\n  geofenceId: 21905,\n  geofenceName: 'DPI66602',\n  centerCords: 'POINT(28.621199991995244 77.05320239067079)',\n  shapeTypeCode: 'CIRCLE',\n  radiusInKms: 0.4,\n  clientId: 1028,\n  latitude: 28.621199991995244,\n  longitude: 77.05320239067079,\n  isHighAlert: true\n}, {\n  createdOnDt: 1499795175000,\n  createdByUserId: 6392,\n  isActiveFl: true,\n  geofenceId: 21904,\n  geofenceName: 'DPI66598',\n  centerCords: 'POINT(28.422 77.054)',\n  shapeTypeCode: 'CIRCLE',\n  radiusInKms: 0.35,\n  clientId: 1028,\n  latitude: 28.422,\n  longitude: 77.054,\n  isHighAlert: true\n}, {\n  createdOnDt: 1499795175000,\n  createdByUserId: 6392,\n  isActiveFl: true,\n  geofenceId: 21903,\n  geofenceName: 'DPI66593',\n  centerCords: 'POINT(27.56 76.613)',\n  shapeTypeCode: 'CIRCLE',\n  radiusInKms: 0.2,\n  clientId: 1028,\n  latitude: 27.56,\n  longitude: 76.613,\n  isHighAlert: true\n}, {\n  createdOnDt: 1499795175000,\n  createdByUserId: 6392,\n  isActiveFl: true,\n  geofenceId: 21902,\n  geofenceName: 'DPI66588',\n  centerCords: 'POINT(27.162 78.038)',\n  shapeTypeCode: 'CIRCLE',\n  radiusInKms: 0.2,\n  clientId: 1028,\n  latitude: 27.162,\n  longitude: 78.038,\n  isHighAlert: true\n}, {\n  createdOnDt: 1499795175000,\n  createdByUserId: 6392,\n  isActiveFl: true,\n  geofenceId: 21901,\n  geofenceName: 'DPI66585',\n  centerCords: 'POINT(29.4732692 77.7152398)',\n  shapeTypeCode: 'CIRCLE',\n  radiusInKms: 0.2,\n  clientId: 1028,\n  latitude: 29.4732692,\n  longitude: 77.7152398,\n  isHighAlert: true\n}, {\n  createdOnDt: 1499795175000,\n  createdByUserId: 6392,\n  isActiveFl: true,\n  geofenceId: 21900,\n  geofenceName: 'DPI66569',\n  centerCords: 'POINT(29.03 77.073)',\n  shapeTypeCode: 'CIRCLE',\n  radiusInKms: 0.2,\n  clientId: 1028,\n  latitude: 29.03,\n  longitude: 77.073,\n  isHighAlert: true\n}, {\n  createdOnDt: 1499795175000,\n  createdByUserId: 6392,\n  isActiveFl: true,\n  geofenceId: 21899,\n  geofenceName: 'DPI66565',\n  centerCords: 'POINT(28.807 76.135)',\n  shapeTypeCode: 'CIRCLE',\n  radiusInKms: 0.2,\n  clientId: 1028,\n  latitude: 28.807,\n  longitude: 76.135,\n  isHighAlert: true\n}, {\n  createdOnDt: 1499795175000,\n  createdByUserId: 6392,\n  isActiveFl: true,\n  geofenceId: 21898,\n  geofenceName: 'DPI66562',\n  centerCords: 'POINT(26.9639998 75.77930059999994)',\n  shapeTypeCode: 'CIRCLE',\n  radiusInKms: 0.2,\n  clientId: 1028,\n  latitude: 26.9639998,\n  longitude: 75.77930059999994,\n  isHighAlert: true\n}, {\n  createdOnDt: 1499795175000,\n  createdByUserId: 6392,\n  isActiveFl: true,\n  geofenceId: 21897,\n  geofenceName: 'DPI66561',\n  centerCords: 'POINT(28.8882524 77.1173647)',\n  shapeTypeCode: 'CIRCLE',\n  radiusInKms: 0.2,\n  clientId: 1028,\n  latitude: 28.8882524,\n  longitude: 77.1173647,\n  isHighAlert: true\n}, {\n  createdOnDt: 1499795175000,\n  createdByUserId: 6392,\n  isActiveFl: true,\n  geofenceId: 21896,\n  geofenceName: 'DPI66557',\n  centerCords: 'POINT(28.6452615 77.1698491)',\n  shapeTypeCode: 'CIRCLE',\n  radiusInKms: 0.2,\n  clientId: 1028,\n  latitude: 28.6452615,\n  longitude: 77.1698491,\n  isHighAlert: true\n}, {\n  createdOnDt: 1499795175000,\n  createdByUserId: 6392,\n  isActiveFl: true,\n  geofenceId: 21895,\n  geofenceName: 'DPI66535',\n  centerCords: 'POINT(28.5890698 77.3014714)',\n  shapeTypeCode: 'CIRCLE',\n  radiusInKms: 0.2,\n  clientId: 1028,\n  latitude: 28.5890698,\n  longitude: 77.3014714,\n  isHighAlert: true\n}, {\n  createdOnDt: 1499795175000,\n  createdByUserId: 6392,\n  isActiveFl: true,\n  geofenceId: 21894,\n  geofenceName: 'DPI66533',\n  centerCords: 'POINT(26.856 75.806)',\n  shapeTypeCode: 'CIRCLE',\n  radiusInKms: 0.2,\n  clientId: 1028,\n  latitude: 26.856,\n  longitude: 75.806,\n  isHighAlert: true\n}, {\n  createdOnDt: 1499795175000,\n  createdByUserId: 6392,\n  isActiveFl: true,\n  geofenceId: 21893,\n  geofenceName: 'DPI66526',\n  centerCords: 'POINT(28.378 76.903)',\n  shapeTypeCode: 'CIRCLE',\n  radiusInKms: 0.2,\n  clientId: 1028,\n  latitude: 28.378,\n  longitude: 76.903,\n  isHighAlert: true\n}, {\n  createdOnDt: 1499795175000,\n  createdByUserId: 6392,\n  isActiveFl: true,\n  geofenceId: 21892,\n  geofenceName: 'DPI66513',\n  centerCords: 'POINT(28.46 77.073)',\n  shapeTypeCode: 'CIRCLE',\n  radiusInKms: 0.2,\n  clientId: 1028,\n  latitude: 28.46,\n  longitude: 77.073,\n  isHighAlert: true\n}, {\n  createdOnDt: 1499795175000,\n  createdByUserId: 6392,\n  isActiveFl: true,\n  geofenceId: 21891,\n  geofenceName: 'DPI66509',\n  centerCords: 'POINT(28.462 77.3)',\n  shapeTypeCode: 'CIRCLE',\n  radiusInKms: 0.2,\n  clientId: 1028,\n  latitude: 28.462,\n  longitude: 77.3,\n  isHighAlert: true\n}, {\n  createdOnDt: 1499795175000,\n  createdByUserId: 6392,\n  isActiveFl: true,\n  geofenceId: 21890,\n  geofenceName: 'DPI66505',\n  centerCords: 'POINT(28.6579993 77.19366)',\n  shapeTypeCode: 'CIRCLE',\n  radiusInKms: 0.2,\n  clientId: 1028,\n  latitude: 28.6579993,\n  longitude: 77.19366,\n  isHighAlert: true\n}, {\n  createdOnDt: 1499795175000,\n  createdByUserId: 6392,\n  isActiveFl: true,\n  geofenceId: 21889,\n  geofenceName: 'DPI66492',\n  centerCords: 'POINT(29.3674605 79.45804799999996)',\n  shapeTypeCode: 'CIRCLE',\n  radiusInKms: 0.3,\n  clientId: 1028,\n  latitude: 29.3674605,\n  longitude: 79.45804799999996,\n  isHighAlert: true\n}, {\n  createdOnDt: 1499795175000,\n  createdByUserId: 6392,\n  isActiveFl: true,\n  geofenceId: 21888,\n  geofenceName: 'DPI66486',\n  centerCords: 'POINT(28.948 77.674)',\n  shapeTypeCode: 'CIRCLE',\n  radiusInKms: 0.2,\n  clientId: 1028,\n  latitude: 28.948,\n  longitude: 77.674,\n  isHighAlert: true\n}, {\n  createdOnDt: 1499795175000,\n  createdByUserId: 6392,\n  isActiveFl: true,\n  geofenceId: 21887,\n  geofenceName: 'DPI66479',\n  centerCords: 'POINT(28.49 77.066)',\n  shapeTypeCode: 'CIRCLE',\n  radiusInKms: 0.2,\n  clientId: 1028,\n  latitude: 28.49,\n  longitude: 77.066,\n  isHighAlert: true\n}, {\n  createdOnDt: 1499795175000,\n  createdByUserId: 6392,\n  isActiveFl: true,\n  geofenceId: 21886,\n  geofenceName: 'DPI66474',\n  centerCords: 'POINT(28.428706 77.09885099999997)',\n  shapeTypeCode: 'CIRCLE',\n  radiusInKms: 0.2,\n  clientId: 1028,\n  latitude: 28.428706,\n  longitude: 77.09885099999997,\n  isHighAlert: true\n}, {\n  createdOnDt: 1499795175000,\n  createdByUserId: 6392,\n  isActiveFl: true,\n  geofenceId: 21885,\n  geofenceName: 'DPI66473',\n  centerCords: 'POINT(28.619 77.033)',\n  shapeTypeCode: 'CIRCLE',\n  radiusInKms: 0.2,\n  clientId: 1028,\n  latitude: 28.619,\n  longitude: 77.033,\n  isHighAlert: true\n}, {\n  createdOnDt: 1499795175000,\n  createdByUserId: 6392,\n  isActiveFl: true,\n  geofenceId: 21884,\n  geofenceName: 'DPI66468',\n  centerCords: 'POINT(28.64495026046713 77.32503890991212)',\n  shapeTypeCode: 'CIRCLE',\n  radiusInKms: 0.27,\n  clientId: 1028,\n  latitude: 28.64495026046713,\n  longitude: 77.32503890991212,\n  isHighAlert: true\n}, {\n  createdOnDt: 1499795175000,\n  createdByUserId: 6392,\n  isActiveFl: true,\n  geofenceId: 21883,\n  geofenceName: 'DPI66466',\n  centerCords: 'POINT(28.57080367044731 77.2207546234131)',\n  shapeTypeCode: 'CIRCLE',\n  radiusInKms: 0.22,\n  clientId: 1028,\n  latitude: 28.57080367044731,\n  longitude: 77.2207546234131,\n  isHighAlert: true\n},